{
  "ayutthayaCity": {
    "floors": [
      "G",
      "1F",
      "2F"
    ],
    "type": "mall",
    "id": "ayutthayaCity",
    "name": "Ayutthaya City Park",
    "shortName": "City Park",
    "lat": 14.3545,
    "lng": 100.5685,
    "latitude": 14.3545,
    "longitude": 100.5685,
    "province": "พระนครศรีอยุธยา",
    "isGiantActive": true,
    "is_giant_active": true,
    "icon": "🏯",
    "source": "seed-thailand-master"
  },
  "bigCAngThong": {
    "floors": [
      "G",
      "1F"
    ],
    "type": "hypermarket",
    "id": "bigCAngThong",
    "name": "Big C Ang Thong",
    "shortName": "Big C",
    "lat": 14.5895,
    "lng": 100.4525,
    "latitude": 14.5895,
    "longitude": 100.4525,
    "province": "อ่างทอง",
    "isGiantActive": true,
    "is_giant_active": true,
    "icon": "🛒",
    "source": "seed-thailand-master"
  },
  "bigCBuengKan": {
    "floors": [
      "G",
      "1F"
    ],
    "type": "hypermarket",
    "id": "bigCBuengKan",
    "name": "Big C Bueng Kan",
    "shortName": "Big C",
    "lat": 18.3605,
    "lng": 103.6465,
    "latitude": 18.3605,
    "longitude": 103.6465,
    "province": "บึงกาฬ",
    "isGiantActive": true,
    "is_giant_active": true,
    "icon": "🛒",
    "source": "seed-thailand-master"
  },
  "bigCChaiNat": {
    "floors": [
      "G",
      "1F"
    ],
    "type": "hypermarket",
    "id": "bigCChaiNat",
    "name": "Big C Chai Nat",
    "shortName": "Big C",
    "lat": 15.1855,
    "lng": 100.1255,
    "latitude": 15.1855,
    "longitude": 100.1255,
    "province": "ชัยนาท",
    "isGiantActive": true,
    "is_giant_active": true,
    "icon": "🛒",
    "source": "seed-thailand-master"
  },
  "bigCKalasin": {
    "floors": [
      "G",
      "1F"
    ],
    "type": "hypermarket",
    "id": "bigCKalasin",
    "name": "Big C Kalasin",
    "shortName": "Big C",
    "lat": 16.4325,
    "lng": 103.5065,
    "latitude": 16.4325,
    "longitude": 103.5065,
    "province": "กาฬสินธุ์",
    "isGiantActive": true,
    "is_giant_active": true,
    "icon": "🛒",
    "source": "seed-thailand-master"
  },
  "bigCKrabi": {
    "floors": [
      "G",
      "1F"
    ],
    "type": "hypermarket",
    "id": "bigCKrabi",
    "name": "Big C Krabi",
    "shortName": "Big C",
    "lat": 8.0715,
    "lng": 98.9135,
    "latitude": 8.0715,
    "longitude": 98.9135,
    "province": "กระบี่",
    "isGiantActive": true,
    "is_giant_active": true,
    "icon": "🛒",
    "source": "seed-thailand-master"
  },
  "bigCLamphun": {
    "floors": [
      "G",
      "1F"
    ],
    "type": "hypermarket",
    "id": "bigCLamphun",
    "name": "Big C Lamphun",
    "shortName": "Big C",
    "lat": 18.5745,
    "lng": 99.0085,
    "latitude": 18.5745,
    "longitude": 99.0085,
    "province": "ลำพูน",
    "isGiantActive": true,
    "is_giant_active": true,
    "icon": "🛒",
    "source": "seed-thailand-master"
  },
  "bigCLoei": {
    "floors": [
      "G",
      "1F"
    ],
    "type": "hypermarket",
    "id": "bigCLoei",
    "name": "Big C Loei",
    "shortName": "Big C",
    "lat": 17.4855,
    "lng": 101.7225,
    "latitude": 17.4855,
    "longitude": 101.7225,
    "province": "เลย",
    "isGiantActive": true,
    "is_giant_active": true,
    "icon": "🛒",
    "source": "seed-thailand-master"
  },
  "bigCMukdahan": {
    "floors": [
      "G",
      "1F"
    ],
    "type": "hypermarket",
    "id": "bigCMukdahan",
    "name": "Big C Mukdahan",
    "shortName": "Big C",
    "lat": 16.5425,
    "lng": 104.7185,
    "latitude": 16.5425,
    "longitude": 104.7185,
    "province": "มุกดาหาร",
    "isGiantActive": true,
    "is_giant_active": true,
    "icon": "🛒",
    "source": "seed-thailand-master"
  },
  "bigCNakhonNayok": {
    "floors": [
      "G",
      "1F"
    ],
    "type": "hypermarket",
    "id": "bigCNakhonNayok",
    "name": "Big C Nakhon Nayok",
    "shortName": "Big C",
    "lat": 14.2055,
    "lng": 101.2135,
    "latitude": 14.2055,
    "longitude": 101.2135,
    "province": "นครนายก",
    "isGiantActive": true,
    "is_giant_active": true,
    "icon": "🛒",
    "source": "seed-thailand-master"
  },
  "bigCNakhonPhanom": {
    "floors": [
      "G",
      "1F"
    ],
    "type": "hypermarket",
    "id": "bigCNakhonPhanom",
    "name": "Big C Nakhon Phanom",
    "shortName": "Big C",
    "lat": 17.4085,
    "lng": 104.7825,
    "latitude": 17.4085,
    "longitude": 104.7825,
    "province": "นครพนม",
    "isGiantActive": true,
    "is_giant_active": true,
    "icon": "🛒",
    "source": "seed-thailand-master"
  },
  "bigCNan": {
    "floors": [
      "G",
      "1F"
    ],
    "type": "hypermarket",
    "id": "bigCNan",
    "name": "Big C Nan",
    "shortName": "Big C",
    "lat": 18.7756,
    "lng": 100.773,
    "latitude": 18.7756,
    "longitude": 100.773,
    "province": "น่าน",
    "isGiantActive": true,
    "is_giant_active": true,
    "icon": "🛒",
    "source": "seed-thailand-master"
  },
  "bigCNarathiwat": {
    "floors": [
      "G",
      "1F"
    ],
    "type": "hypermarket",
    "id": "bigCNarathiwat",
    "name": "Big C Narathiwat",
    "shortName": "Big C",
    "lat": 6.4255,
    "lng": 101.8235,
    "latitude": 6.4255,
    "longitude": 101.8235,
    "province": "นราธิวาส",
    "isGiantActive": true,
    "is_giant_active": true,
    "icon": "🛒",
    "source": "seed-thailand-master"
  },
  "bigCNongBua": {
    "floors": [
      "G",
      "1F"
    ],
    "type": "hypermarket",
    "id": "bigCNongBua",
    "name": "Big C Nong Bua Lamphu",
    "shortName": "Big C",
    "lat": 17.2045,
    "lng": 102.4415,
    "latitude": 17.2045,
    "longitude": 102.4415,
    "province": "หนองบัวลำภู",
    "isGiantActive": true,
    "is_giant_active": true,
    "icon": "🛒",
    "source": "seed-thailand-master"
  },
  "bigCNongKhai": {
    "floors": [
      "G",
      "1F"
    ],
    "type": "hypermarket",
    "id": "bigCNongKhai",
    "name": "Big C Nong Khai",
    "shortName": "Big C",
    "lat": 17.8785,
    "lng": 102.7425,
    "latitude": 17.8785,
    "longitude": 102.7425,
    "province": "หนองคาย",
    "isGiantActive": true,
    "is_giant_active": true,
    "icon": "🛒",
    "source": "seed-thailand-master"
  },
  "bigCPattani": {
    "floors": [
      "G",
      "1F"
    ],
    "type": "hypermarket",
    "id": "bigCPattani",
    "name": "Big C Pattani",
    "shortName": "Big C",
    "lat": 6.8685,
    "lng": 101.2505,
    "latitude": 6.8685,
    "longitude": 101.2505,
    "province": "ปัตตานี",
    "isGiantActive": true,
    "is_giant_active": true,
    "icon": "🛒",
    "source": "seed-thailand-master"
  },
  "bigCPhangNga": {
    "floors": [
      "G",
      "1F"
    ],
    "type": "hypermarket",
    "id": "bigCPhangNga",
    "name": "Big C Phang Nga",
    "shortName": "Big C",
    "lat": 8.4505,
    "lng": 98.5275,
    "latitude": 8.4505,
    "longitude": 98.5275,
    "province": "พังงา",
    "isGiantActive": true,
    "is_giant_active": true,
    "icon": "🛒",
    "source": "seed-thailand-master"
  },
  "bigCPhatthalung": {
    "floors": [
      "G",
      "1F"
    ],
    "type": "hypermarket",
    "id": "bigCPhatthalung",
    "name": "Big C Phatthalung",
    "shortName": "Big C",
    "lat": 7.6165,
    "lng": 100.0785,
    "latitude": 7.6165,
    "longitude": 100.0785,
    "province": "พัทลุง",
    "isGiantActive": true,
    "is_giant_active": true,
    "icon": "🛒",
    "source": "seed-thailand-master"
  },
  "bigCPhrae": {
    "floors": [
      "G",
      "1F"
    ],
    "type": "hypermarket",
    "id": "bigCPhrae",
    "name": "Big C Phrae",
    "shortName": "Big C",
    "lat": 18.1445,
    "lng": 100.1414,
    "latitude": 18.1445,
    "longitude": 100.1414,
    "province": "แพร่",
    "isGiantActive": true,
    "is_giant_active": true,
    "icon": "🛒",
    "source": "seed-thailand-master"
  },
  "bigCRanong": {
    "floors": [
      "G",
      "1F"
    ],
    "type": "hypermarket",
    "id": "bigCRanong",
    "name": "Big C Ranong",
    "shortName": "Big C",
    "lat": 9.9655,
    "lng": 98.6345,
    "latitude": 9.9655,
    "longitude": 98.6345,
    "province": "ระนอง",
    "isGiantActive": true,
    "is_giant_active": true,
    "icon": "🛒",
    "source": "seed-thailand-master"
  },
  "bigCRoiEt": {
    "floors": [
      "G",
      "1F"
    ],
    "type": "hypermarket",
    "id": "bigCRoiEt",
    "name": "Big C Roi Et",
    "shortName": "Big C",
    "lat": 16.0545,
    "lng": 103.6515,
    "latitude": 16.0545,
    "longitude": 103.6515,
    "province": "ร้อยเอ็ด",
    "isGiantActive": true,
    "is_giant_active": true,
    "icon": "🛒",
    "source": "seed-thailand-master"
  },
  "bigCSaKaeo": {
    "floors": [
      "G",
      "1F"
    ],
    "type": "hypermarket",
    "id": "bigCSaKaeo",
    "name": "Big C Sa Kaeo",
    "shortName": "Big C",
    "lat": 13.8245,
    "lng": 102.0645,
    "latitude": 13.8245,
    "longitude": 102.0645,
    "province": "สระแก้ว",
    "isGiantActive": true,
    "is_giant_active": true,
    "icon": "🛒",
    "source": "seed-thailand-master"
  },
  "bigCSamutSongkhram": {
    "floors": [
      "G",
      "1F"
    ],
    "type": "hypermarket",
    "id": "bigCSamutSongkhram",
    "name": "Big C Samut Songkhram",
    "shortName": "Big C",
    "lat": 13.4125,
    "lng": 99.9985,
    "latitude": 13.4125,
    "longitude": 99.9985,
    "province": "สมุทรสงคราม",
    "isGiantActive": true,
    "is_giant_active": true,
    "icon": "🛒",
    "source": "seed-thailand-master"
  },
  "bigCSatun": {
    "floors": [
      "G",
      "1F"
    ],
    "type": "hypermarket",
    "id": "bigCSatun",
    "name": "Big C Satun",
    "shortName": "Big C",
    "lat": 6.6235,
    "lng": 100.0675,
    "latitude": 6.6235,
    "longitude": 100.0675,
    "province": "สตูล",
    "isGiantActive": true,
    "is_giant_active": true,
    "icon": "🛒",
    "source": "seed-thailand-master"
  },
  "bigCSingBuri": {
    "floors": [
      "G",
      "1F"
    ],
    "type": "hypermarket",
    "id": "bigCSingBuri",
    "name": "Big C Sing Buri",
    "shortName": "Big C",
    "lat": 14.8915,
    "lng": 100.3975,
    "latitude": 14.8915,
    "longitude": 100.3975,
    "province": "สิงห์บุรี",
    "isGiantActive": true,
    "is_giant_active": true,
    "icon": "🛒",
    "source": "seed-thailand-master"
  },
  "bigCTrat": {
    "floors": [
      "G",
      "1F"
    ],
    "type": "hypermarket",
    "id": "bigCTrat",
    "name": "Big C Trat",
    "shortName": "Big C",
    "lat": 12.2425,
    "lng": 102.5155,
    "latitude": 12.2425,
    "longitude": 102.5155,
    "province": "ตราด",
    "isGiantActive": true,
    "is_giant_active": true,
    "icon": "🛒",
    "source": "seed-thailand-master"
  },
  "bigCUthaiThani": {
    "floors": [
      "G",
      "1F"
    ],
    "type": "hypermarket",
    "id": "bigCUthaiThani",
    "name": "Big C Uthai Thani",
    "shortName": "Big C",
    "lat": 15.3825,
    "lng": 100.0255,
    "latitude": 15.3825,
    "longitude": 100.0255,
    "province": "อุทัยธานี",
    "isGiantActive": true,
    "is_giant_active": true,
    "icon": "🛒",
    "source": "seed-thailand-master"
  },
  "bigCYala": {
    "floors": [
      "G",
      "1F"
    ],
    "type": "hypermarket",
    "id": "bigCYala",
    "name": "Big C Yala",
    "shortName": "Big C",
    "lat": 6.5385,
    "lng": 101.2805,
    "latitude": 6.5385,
    "longitude": 101.2805,
    "province": "ยะลา",
    "isGiantActive": true,
    "is_giant_active": true,
    "icon": "🛒",
    "source": "seed-thailand-master"
  },
  "bigCYasothon": {
    "floors": [
      "G",
      "1F"
    ],
    "type": "hypermarket",
    "id": "bigCYasothon",
    "name": "Big C Yasothon",
    "shortName": "Big C",
    "lat": 15.7925,
    "lng": 104.1455,
    "latitude": 15.7925,
    "longitude": 104.1455,
    "province": "ยโสธร",
    "isGiantActive": true,
    "is_giant_active": true,
    "icon": "🛒",
    "source": "seed-thailand-master"
  },
  "bluportHuaHin": {
    "floors": [
      "G",
      "1F",
      "2F"
    ],
    "type": "mall",
    "id": "bluportHuaHin",
    "name": "Bluport Hua Hin Resort Mall",
    "shortName": "Bluport",
    "lat": 12.5685,
    "lng": 99.9488,
    "latitude": 12.5685,
    "longitude": 99.9488,
    "province": "ประจวบคีรีขันธ์",
    "isGiantActive": true,
    "is_giant_active": true,
    "icon": "🌅",
    "source": "seed-thailand-master"
  },
  "bluportRatchaburi": {
    "floors": [
      "G",
      "1F"
    ],
    "type": "mall",
    "id": "bluportRatchaburi",
    "name": "The Walk Ratchaburi",
    "shortName": "The Walk",
    "lat": 13.5365,
    "lng": 99.8175,
    "latitude": 13.5365,
    "longitude": 99.8175,
    "province": "ราชบุรี",
    "isGiantActive": true,
    "is_giant_active": true,
    "icon": "🚶",
    "source": "seed-thailand-master"
  },
  "campNimman": {
    "id": "campNimman",
    "name": "Camp Nimman",
    "shortName": "Camp Nimman",
    "lat": 18.7958,
    "lng": 98.9672,
    "province": "เชียงใหม่",
    "zone": "นิมมาน",
    "floors": [
      "G",
      "1F"
    ],
    "floorNames": {
      "G": "Cafes & Boutiques",
      "1F": "Shops & Courtyard"
    },
    "floorPlanUrls": {
      "G": "/data/floorplans/campnimman-g.png",
      "1F": "/data/floorplans/campnimman-g.png"
    },
    "floorShops": {
      "G": [
        "Cafes",
        "Boutique Shops",
        "Fashion"
      ],
      "1F": [
        "Shops",
        "Courtyard",
        "Restrooms"
      ]
    },
    "poiLegendMeta": {
      "entrance": {
        "label": "ทางเข้า",
        "color": "#22C55E",
        "icon": "🚪",
        "group": "Access",
        "order": 1,
        "sort": 10
      },
      "stairs": {
        "label": "บันได",
        "color": "#D97706",
        "icon": "🪜",
        "group": "Access",
        "order": 1,
        "sort": 20
      },
      "toilet": {
        "label": "ห้องน้ำ",
        "color": "#0EA5E9",
        "icon": "🚻",
        "group": "Facilities",
        "order": 2,
        "sort": 10
      },
      "cafe": {
        "label": "คาเฟ่",
        "color": "#92400E",
        "icon": "☕",
        "group": "Food",
        "order": 4,
        "sort": 20
      },
      "shop": {
        "label": "ร้านค้า",
        "color": "#8B5CF6",
        "icon": "🛍️",
        "group": "Shopping",
        "order": 5,
        "sort": 10
      },
      "fashion": {
        "label": "แฟชั่น",
        "color": "#E11D48",
        "icon": "👗",
        "group": "Shopping",
        "order": 5,
        "sort": 20
      }
    },
    "indoorNavByFloor": {
      "G": [
        {
          "id": "camp-g-entrance",
          "type": "entrance",
          "label": "Entrance (Nimman Rd)",
          "lat": 18.795,
          "lng": 98.9672,
          "zoneNo": "1"
        },
        {
          "id": "camp-g-cafe1",
          "type": "cafe",
          "label": "Cafe Zone",
          "lat": 18.7962,
          "lng": 98.9668,
          "zoneNo": "2"
        },
        {
          "id": "camp-g-shop1",
          "type": "shop",
          "label": "Shop Zone",
          "lat": 18.7958,
          "lng": 98.9676,
          "zoneNo": "3"
        },
        {
          "id": "camp-g-fashion",
          "type": "fashion",
          "label": "Fashion Boutiques",
          "lat": 18.7955,
          "lng": 98.967,
          "zoneNo": "4"
        }
      ],
      "1F": [
        {
          "id": "camp-1f-courtyard",
          "type": "shop",
          "label": "Courtyard Shops",
          "lat": 18.7958,
          "lng": 98.9672,
          "zoneNo": "1"
        },
        {
          "id": "camp-1f-stairs",
          "type": "stairs",
          "label": "Stairs Down",
          "lat": 18.796,
          "lng": 98.9675,
          "zoneNo": "2"
        },
        {
          "id": "camp-1f-toilet",
          "type": "toilet",
          "label": "Restrooms",
          "lat": 18.7962,
          "lng": 98.9678,
          "zoneNo": "3"
        }
      ]
    },
    "openTime": "10:00",
    "closeTime": "22:00",
    "latitude": 18.7958,
    "longitude": 98.9672,
    "source": "curated"
  },
  "centralAirport": {
    "id": "centralAirport",
    "name": "Central Airport Plaza",
    "shortName": "Central Airport",
    "lat": 18.7715,
    "lng": 99.0045,
    "province": "เชียงใหม่",
    "zone": "หายยา",
    "floors": [
      "B1",
      "G",
      "1F",
      "2F",
      "3F"
    ],
    "floorNames": {
      "B1": "Parking",
      "G": "Fashion & Department Store",
      "1F": "Fashion & Lifestyle",
      "2F": "Electronics & Gadgets",
      "3F": "Food Court & Cinema"
    },
    "floorPlanUrls": {
      "G": "/data/floorplans/centralairport-g.png",
      "1F": "/data/floorplans/centralairport-g.png",
      "2F": "/data/floorplans/centralairport-g.png",
      "3F": "/data/floorplans/centralairport-g.png"
    },
    "floorShops": {
      "B1": [
        "Parking"
      ],
      "G": [
        "Central Department Store",
        "Boots",
        "Watsons"
      ],
      "1F": [
        "H&M",
        "Cotton On",
        "Lifestyle Brands"
      ],
      "2F": [
        "Power Buy",
        "IT City"
      ],
      "3F": [
        "Food Court",
        "SFX Cinema"
      ]
    },
    "poiLegendMeta": {
      "entrance": {
        "label": "ทางเข้า",
        "color": "#22C55E",
        "icon": "🚪",
        "group": "Access",
        "order": 1,
        "sort": 10
      },
      "lift": {
        "label": "ลิฟต์",
        "color": "#A855F7",
        "icon": "🛗",
        "group": "Access",
        "order": 1,
        "sort": 20
      },
      "escalator": {
        "label": "บันไดเลื่อน",
        "color": "#F59E0B",
        "icon": "⬆️",
        "group": "Access",
        "order": 1,
        "sort": 30
      },
      "toilet": {
        "label": "ห้องน้ำ",
        "color": "#0EA5E9",
        "icon": "🚻",
        "group": "Facilities",
        "order": 2,
        "sort": 10
      },
      "food": {
        "label": "อาหาร",
        "color": "#EF4444",
        "icon": "🍽️",
        "group": "Food",
        "order": 4,
        "sort": 10
      },
      "shop": {
        "label": "ร้านค้า",
        "color": "#8B5CF6",
        "icon": "🛍️",
        "group": "Shopping",
        "order": 5,
        "sort": 10
      },
      "cinema": {
        "label": "โรงหนัง",
        "color": "#6366F1",
        "icon": "🎬",
        "group": "Entertainment",
        "order": 6,
        "sort": 10
      },
      "parking": {
        "label": "ที่จอดรถ",
        "color": "#64748B",
        "icon": "🅿️",
        "group": "Parking",
        "order": 8,
        "sort": 10
      }
    },
    "indoorNavByFloor": {
      "G": [
        {
          "id": "cap-g-entrance-main",
          "type": "entrance",
          "label": "Main Entrance",
          "lat": 18.7725,
          "lng": 99.0045,
          "zoneNo": "1"
        },
        {
          "id": "cap-g-department",
          "type": "shop",
          "label": "Department Store",
          "lat": 18.7715,
          "lng": 99.0035,
          "zoneNo": "2"
        },
        {
          "id": "cap-g-escalator",
          "type": "escalator",
          "label": "Escalators",
          "lat": 18.7715,
          "lng": 99.0045,
          "zoneNo": "3"
        },
        {
          "id": "cap-g-parking",
          "type": "parking",
          "label": "Parking Access",
          "lat": 18.7705,
          "lng": 99.0055,
          "zoneNo": "4"
        }
      ],
      "3F": [
        {
          "id": "cap-3f-foodcourt",
          "type": "food",
          "label": "Food Court",
          "lat": 18.772,
          "lng": 99.005,
          "zoneNo": "1"
        },
        {
          "id": "cap-3f-cinema",
          "type": "cinema",
          "label": "SFX Cinema",
          "lat": 18.771,
          "lng": 99.004,
          "zoneNo": "2"
        },
        {
          "id": "cap-3f-toilet",
          "type": "toilet",
          "label": "Restrooms",
          "lat": 18.7715,
          "lng": 99.0055,
          "zoneNo": "3"
        }
      ]
    },
    "openTime": "10:00",
    "closeTime": "21:00",
    "latitude": 18.7715,
    "longitude": 99.0045,
    "source": "curated"
  },
  "centralAirportCNX": {
    "floors": [
      "G",
      "1F",
      "2F",
      "3F"
    ],
    "type": "mall",
    "id": "centralAirportCNX",
    "name": "Central Airport Plaza",
    "shortName": "Airport Plaza",
    "lat": 18.7715,
    "lng": 99.0045,
    "latitude": 18.7715,
    "longitude": 99.0045,
    "province": "เชียงใหม่",
    "isGiantActive": true,
    "is_giant_active": true,
    "icon": "✈️",
    "source": "seed-thailand-master"
  },
  "centralAyutthaya": {
    "floors": [
      "G",
      "1F",
      "2F",
      "3F"
    ],
    "type": "mall",
    "id": "centralAyutthaya",
    "name": "Central Ayutthaya",
    "shortName": "Central AY",
    "lat": 14.3512,
    "lng": 100.5702,
    "latitude": 14.3512,
    "longitude": 100.5702,
    "province": "พระนครศรีอยุธยา",
    "isGiantActive": true,
    "is_giant_active": true,
    "icon": "🏬",
    "source": "seed-thailand-master"
  },
  "centralBangna": {
    "floors": [
      "G",
      "1F",
      "2F",
      "3F",
      "4F"
    ],
    "type": "mall",
    "id": "centralBangna",
    "name": "Central Bangna",
    "shortName": "Central BN",
    "lat": 13.6642,
    "lng": 100.6068,
    "latitude": 13.6642,
    "longitude": 100.6068,
    "province": "กรุงเทพฯ",
    "isGiantActive": true,
    "is_giant_active": true,
    "icon": "🏬",
    "source": "seed-thailand-master"
  },
  "centralBangnaSP": {
    "floors": [
      "G",
      "1F",
      "2F",
      "3F",
      "4F"
    ],
    "type": "mall",
    "id": "centralBangnaSP",
    "name": "Central Bangna",
    "shortName": "Central BN",
    "lat": 13.6642,
    "lng": 100.6068,
    "latitude": 13.6642,
    "longitude": 100.6068,
    "province": "สมุทรปราการ",
    "isGiantActive": true,
    "is_giant_active": true,
    "icon": "🏬",
    "source": "seed-thailand-master"
  },
  "centralChanthaburi": {
    "floors": [
      "G",
      "1F",
      "2F"
    ],
    "type": "mall",
    "id": "centralChanthaburi",
    "name": "Central Chanthaburi",
    "shortName": "Central CT",
    "lat": 12.6115,
    "lng": 102.1045,
    "latitude": 12.6115,
    "longitude": 102.1045,
    "province": "จันทบุรี",
    "isGiantActive": true,
    "is_giant_active": true,
    "icon": "🏬",
    "source": "seed-thailand-master"
  },
  "centralChonburi": {
    "floors": [
      "G",
      "1F",
      "2F",
      "3F"
    ],
    "type": "mall",
    "id": "centralChonburi",
    "name": "Central Chonburi",
    "shortName": "Central CB",
    "lat": 13.3611,
    "lng": 100.9848,
    "latitude": 13.3611,
    "longitude": 100.9848,
    "province": "ชลบุรี",
    "isGiantActive": true,
    "is_giant_active": true,
    "icon": "🏬",
    "source": "seed-thailand-master"
  },
  "centralCR": {
    "floors": [
      "G",
      "1F",
      "2F",
      "3F"
    ],
    "type": "mall",
    "id": "centralCR",
    "name": "Central Chiang Rai",
    "shortName": "Central CR",
    "lat": 19.9135,
    "lng": 99.8408,
    "latitude": 19.9135,
    "longitude": 99.8408,
    "province": "เชียงราย",
    "isGiantActive": true,
    "is_giant_active": true,
    "icon": "🏔️",
    "source": "seed-thailand-master"
  },
  "centralEmbassy": {
    "floors": [
      "B1",
      "G",
      "1F",
      "2F",
      "3F",
      "4F",
      "5F",
      "6F"
    ],
    "type": "luxury_mall",
    "id": "centralEmbassy",
    "name": "Central Embassy",
    "shortName": "Embassy",
    "lat": 13.7445,
    "lng": 100.5465,
    "latitude": 13.7445,
    "longitude": 100.5465,
    "province": "กรุงเทพฯ",
    "isGiantActive": true,
    "is_giant_active": true,
    "icon": "🏰",
    "source": "seed-thailand-master"
  },
  "centralFestival": {
    "id": "centralFestival",
    "name": "Central Festival Chiang Mai",
    "shortName": "Central Festival",
    "lat": 18.768,
    "lng": 98.9795,
    "province": "เชียงใหม่",
    "zone": "สันติธรรม",
    "floors": [
      "B1",
      "G",
      "1F",
      "2F",
      "3F",
      "4F"
    ],
    "floorNames": {
      "B1": "Parking & Supermarket",
      "G": "Fashion & Central Department",
      "1F": "Fashion & Lifestyle",
      "2F": "Electronics & IT",
      "3F": "Home & Living",
      "4F": "Food Court & Entertainment"
    },
    "floorPlanUrls": {
      "G": "/data/floorplans/centralfestival-g.png",
      "1F": "/data/floorplans/centralfestival-g.png",
      "2F": "/data/floorplans/centralfestival-g.png",
      "3F": "/data/floorplans/centralfestival-g.png",
      "4F": "/data/floorplans/centralfestival-g.png"
    },
    "floorShops": {
      "B1": [
        "Tops Market",
        "Parking"
      ],
      "G": [
        "Central Department Store",
        "Robinson",
        "H&M",
        "Uniqlo"
      ],
      "1F": [
        "ZARA",
        "Mango",
        "Charles & Keith"
      ],
      "2F": [
        "IT City",
        "Power Buy",
        "Samsung"
      ],
      "3F": [
        "Index Living Mall",
        "HomePro"
      ],
      "4F": [
        "Food Court",
        "Major Cineplex",
        "Bowling"
      ]
    },
    "poiLegendMeta": {
      "entrance": {
        "label": "ทางเข้า",
        "color": "#22C55E",
        "icon": "🚪",
        "group": "Access",
        "order": 1,
        "sort": 10
      },
      "lift": {
        "label": "ลิฟต์",
        "color": "#A855F7",
        "icon": "🛗",
        "group": "Access",
        "order": 1,
        "sort": 20
      },
      "escalator": {
        "label": "บันไดเลื่อน",
        "color": "#F59E0B",
        "icon": "⬆️",
        "group": "Access",
        "order": 1,
        "sort": 30
      },
      "toilet": {
        "label": "ห้องน้ำ",
        "color": "#0EA5E9",
        "icon": "🚻",
        "group": "Facilities",
        "order": 2,
        "sort": 10
      },
      "atm": {
        "label": "ตู้ ATM",
        "color": "#10B981",
        "icon": "🏧",
        "group": "Facilities",
        "order": 2,
        "sort": 20
      },
      "food": {
        "label": "อาหาร",
        "color": "#EF4444",
        "icon": "🍽️",
        "group": "Food",
        "order": 4,
        "sort": 10
      },
      "shop": {
        "label": "ร้านค้า",
        "color": "#8B5CF6",
        "icon": "🛍️",
        "group": "Shopping",
        "order": 5,
        "sort": 10
      },
      "cinema": {
        "label": "โรงหนัง",
        "color": "#6366F1",
        "icon": "🎬",
        "group": "Entertainment",
        "order": 6,
        "sort": 10
      },
      "parking": {
        "label": "ที่จอดรถ",
        "color": "#64748B",
        "icon": "🅿️",
        "group": "Parking",
        "order": 8,
        "sort": 10
      }
    },
    "indoorNavByFloor": {
      "G": [
        {
          "id": "cf-g-entrance-main",
          "type": "entrance",
          "label": "Main Entrance (North)",
          "lat": 18.7695,
          "lng": 98.9795,
          "zoneNo": "1"
        },
        {
          "id": "cf-g-entrance-south",
          "type": "entrance",
          "label": "Entrance (South)",
          "lat": 18.7665,
          "lng": 98.9795,
          "zoneNo": "2"
        },
        {
          "id": "cf-g-central-dept",
          "type": "shop",
          "label": "Central Department Store",
          "lat": 18.768,
          "lng": 98.978,
          "zoneNo": "3"
        },
        {
          "id": "cf-g-robinson",
          "type": "shop",
          "label": "Robinson",
          "lat": 18.768,
          "lng": 98.981,
          "zoneNo": "4"
        },
        {
          "id": "cf-g-escalator",
          "type": "escalator",
          "label": "Central Atrium Escalators",
          "lat": 18.768,
          "lng": 98.9795,
          "zoneNo": "5"
        },
        {
          "id": "cf-g-toilet",
          "type": "toilet",
          "label": "Restrooms",
          "lat": 18.769,
          "lng": 98.9805,
          "zoneNo": "6"
        }
      ],
      "4F": [
        {
          "id": "cf-4f-foodcourt",
          "type": "food",
          "label": "Food Court",
          "lat": 18.7685,
          "lng": 98.979,
          "zoneNo": "1"
        },
        {
          "id": "cf-4f-cinema",
          "type": "cinema",
          "label": "Major Cineplex",
          "lat": 18.7675,
          "lng": 98.98,
          "zoneNo": "2"
        },
        {
          "id": "cf-4f-escalator",
          "type": "escalator",
          "label": "Escalators Down",
          "lat": 18.768,
          "lng": 98.9795,
          "zoneNo": "3"
        },
        {
          "id": "cf-4f-toilet",
          "type": "toilet",
          "label": "Restrooms",
          "lat": 18.769,
          "lng": 98.9785,
          "zoneNo": "4"
        }
      ]
    },
    "openTime": "10:30",
    "closeTime": "21:30",
    "latitude": 18.768,
    "longitude": 98.9795,
    "source": "curated"
  },
  "centralFestivalCNX": {
    "floors": [
      "G",
      "1F",
      "2F",
      "3F",
      "4F"
    ],
    "type": "mall",
    "id": "centralFestivalCNX",
    "name": "Central Festival Chiang Mai",
    "shortName": "Central CNX",
    "lat": 18.768,
    "lng": 98.9795,
    "latitude": 18.768,
    "longitude": 98.9795,
    "province": "เชียงใหม่",
    "isGiantActive": true,
    "is_giant_active": true,
    "icon": "🛍️",
    "source": "seed-thailand-master"
  },
  "centralFloresta": {
    "floors": [
      "G",
      "1F",
      "2F"
    ],
    "type": "mall",
    "id": "centralFloresta",
    "name": "Central Floresta Phuket",
    "shortName": "Floresta",
    "lat": 7.8885,
    "lng": 98.3685,
    "latitude": 7.8885,
    "longitude": 98.3685,
    "province": "ภูเก็ต",
    "isGiantActive": true,
    "is_giant_active": true,
    "icon": "🌸",
    "source": "seed-thailand-master"
  },
  "centralHatyai": {
    "floors": [
      "G",
      "1F",
      "2F",
      "3F",
      "4F"
    ],
    "type": "mall",
    "id": "centralHatyai",
    "name": "Central Hatyai",
    "shortName": "Central HY",
    "lat": 7.0085,
    "lng": 100.4765,
    "latitude": 7.0085,
    "longitude": 100.4765,
    "province": "สงขลา",
    "isGiantActive": true,
    "is_giant_active": true,
    "icon": "🏬",
    "source": "seed-thailand-master"
  },
  "centralKhonKaen": {
    "floors": [
      "G",
      "1F",
      "2F",
      "3F",
      "4F"
    ],
    "type": "mall",
    "id": "centralKhonKaen",
    "name": "Central Khon Kaen",
    "shortName": "Central KK",
    "lat": 16.4325,
    "lng": 102.8365,
    "latitude": 16.4325,
    "longitude": 102.8365,
    "province": "ขอนแก่น",
    "isGiantActive": true,
    "is_giant_active": true,
    "icon": "🏬",
    "source": "seed-thailand-master"
  },
  "centralKorat": {
    "floors": [
      "G",
      "1F",
      "2F",
      "3F",
      "4F"
    ],
    "type": "mall",
    "id": "centralKorat",
    "name": "Central Korat",
    "shortName": "Central Korat",
    "lat": 14.9725,
    "lng": 102.0855,
    "latitude": 14.9725,
    "longitude": 102.0855,
    "province": "นครราชสีมา",
    "isGiantActive": true,
    "is_giant_active": true,
    "icon": "🏬",
    "source": "seed-thailand-master"
  },
  "centralLadprao": {
    "floors": [
      "G",
      "1F",
      "2F",
      "3F",
      "4F",
      "5F"
    ],
    "type": "mall",
    "id": "centralLadprao",
    "name": "Central Ladprao",
    "shortName": "Central LP",
    "lat": 13.8167,
    "lng": 100.5619,
    "latitude": 13.8167,
    "longitude": 100.5619,
    "province": "กรุงเทพฯ",
    "isGiantActive": true,
    "is_giant_active": true,
    "icon": "🏬",
    "source": "seed-thailand-master"
  },
  "centralLampang": {
    "floors": [
      "G",
      "1F",
      "2F"
    ],
    "type": "mall",
    "id": "centralLampang",
    "name": "Central Lampang",
    "shortName": "Central LP",
    "lat": 18.2888,
    "lng": 99.4908,
    "latitude": 18.2888,
    "longitude": 99.4908,
    "province": "ลำปาง",
    "isGiantActive": true,
    "is_giant_active": true,
    "icon": "🏛️",
    "source": "seed-thailand-master"
  },
  "centralMahachai": {
    "floors": [
      "G",
      "1F",
      "2F",
      "3F"
    ],
    "type": "mall",
    "id": "centralMahachai",
    "name": "Central Mahachai",
    "shortName": "Central",
    "lat": 13.5475,
    "lng": 100.2745,
    "latitude": 13.5475,
    "longitude": 100.2745,
    "province": "สมุทรสาคร",
    "isGiantActive": true,
    "is_giant_active": true,
    "icon": "🏬",
    "source": "seed-thailand-master"
  },
  "centralMarina": {
    "floors": [
      "G",
      "1F",
      "2F"
    ],
    "type": "mall",
    "id": "centralMarina",
    "name": "Central Marina Pattaya",
    "shortName": "Central Marina",
    "lat": 12.9395,
    "lng": 100.886,
    "latitude": 12.9395,
    "longitude": 100.886,
    "province": "ชลบุรี",
    "isGiantActive": true,
    "is_giant_active": true,
    "icon": "⚓",
    "source": "seed-thailand-master"
  },
  "centralNakhonSi": {
    "floors": [
      "G",
      "1F",
      "2F",
      "3F"
    ],
    "type": "mall",
    "id": "centralNakhonSi",
    "name": "Central Nakhon Si",
    "shortName": "Central NS",
    "lat": 8.4325,
    "lng": 99.9665,
    "latitude": 8.4325,
    "longitude": 99.9665,
    "province": "นครศรีธรรมราช",
    "isGiantActive": true,
    "is_giant_active": true,
    "icon": "🏬",
    "source": "seed-thailand-master"
  },
  "centralPattaya": {
    "floors": [
      "G",
      "1F",
      "2F",
      "3F",
      "4F",
      "5F"
    ],
    "type": "mall",
    "id": "centralPattaya",
    "name": "Central Pattaya",
    "shortName": "Central PTY",
    "lat": 12.9285,
    "lng": 100.8775,
    "latitude": 12.9285,
    "longitude": 100.8775,
    "province": "ชลบุรี",
    "isGiantActive": true,
    "is_giant_active": true,
    "icon": "🏬",
    "source": "seed-thailand-master"
  },
  "centralPhuket": {
    "floors": [
      "G",
      "1F",
      "2F",
      "3F"
    ],
    "type": "mall",
    "id": "centralPhuket",
    "name": "Central Phuket",
    "shortName": "Central Phuket",
    "lat": 7.8915,
    "lng": 98.3625,
    "latitude": 7.8915,
    "longitude": 98.3625,
    "province": "ภูเก็ต",
    "isGiantActive": true,
    "is_giant_active": true,
    "icon": "🏬",
    "source": "seed-thailand-master"
  },
  "centralPinklao": {
    "floors": [
      "G",
      "1F",
      "2F",
      "3F",
      "4F",
      "5F"
    ],
    "type": "mall",
    "id": "centralPinklao",
    "name": "Central Pinklao",
    "shortName": "Central PK",
    "lat": 13.7785,
    "lng": 100.4668,
    "latitude": 13.7785,
    "longitude": 100.4668,
    "province": "กรุงเทพฯ",
    "isGiantActive": true,
    "is_giant_active": true,
    "icon": "🏬",
    "source": "seed-thailand-master"
  },
  "centralPlazaKK": {
    "floors": [
      "G",
      "1F",
      "2F",
      "3F"
    ],
    "type": "mall",
    "id": "centralPlazaKK",
    "name": "CentralPlaza Khon Kaen",
    "shortName": "CentralPlaza",
    "lat": 16.4265,
    "lng": 102.8295,
    "latitude": 16.4265,
    "longitude": 102.8295,
    "province": "ขอนแก่น",
    "isGiantActive": true,
    "is_giant_active": true,
    "icon": "🏬",
    "source": "seed-thailand-master"
  },
  "centralPlazaPL": {
    "floors": [
      "G",
      "1F",
      "2F",
      "3F"
    ],
    "type": "mall",
    "id": "centralPlazaPL",
    "name": "Central Plaza Phitsanulok",
    "shortName": "Central PL",
    "lat": 16.8211,
    "lng": 100.2659,
    "latitude": 16.8211,
    "longitude": 100.2659,
    "province": "พิษณุโลก",
    "isGiantActive": true,
    "is_giant_active": true,
    "icon": "🏬",
    "source": "seed-thailand-master"
  },
  "centralRama9": {
    "floors": [
      "G",
      "1F",
      "2F",
      "3F",
      "4F",
      "5F",
      "6F"
    ],
    "type": "mall",
    "id": "centralRama9",
    "name": "Central Rama 9",
    "shortName": "Central R9",
    "lat": 13.7582,
    "lng": 100.5685,
    "latitude": 13.7582,
    "longitude": 100.5685,
    "province": "กรุงเทพฯ",
    "isGiantActive": true,
    "is_giant_active": true,
    "icon": "🏬",
    "source": "seed-thailand-master"
  },
  "centralRattanathibet": {
    "floors": [
      "G",
      "1F",
      "2F",
      "3F"
    ],
    "type": "mall",
    "id": "centralRattanathibet",
    "name": "Central Rattanathibet",
    "shortName": "Central RT",
    "lat": 13.8595,
    "lng": 100.4215,
    "latitude": 13.8595,
    "longitude": 100.4215,
    "province": "นนทบุรี",
    "isGiantActive": true,
    "is_giant_active": true,
    "icon": "🏬",
    "source": "seed-thailand-master"
  },
  "centralRayong": {
    "floors": [
      "G",
      "1F",
      "2F",
      "3F"
    ],
    "type": "mall",
    "id": "centralRayong",
    "name": "Central Rayong",
    "shortName": "Central RY",
    "lat": 12.6815,
    "lng": 101.2775,
    "latitude": 12.6815,
    "longitude": 101.2775,
    "province": "ระยอง",
    "isGiantActive": true,
    "is_giant_active": true,
    "icon": "🏬",
    "source": "seed-thailand-master"
  },
  "centralSalaya": {
    "floors": [
      "G",
      "1F",
      "2F",
      "3F"
    ],
    "type": "mall",
    "id": "centralSalaya",
    "name": "Central Salaya",
    "shortName": "Central SL",
    "lat": 13.7948,
    "lng": 100.3215,
    "latitude": 13.7948,
    "longitude": 100.3215,
    "province": "นครปฐม",
    "isGiantActive": true,
    "is_giant_active": true,
    "icon": "🏬",
    "source": "seed-thailand-master"
  },
  "centralSuratthani": {
    "floors": [
      "G",
      "1F",
      "2F",
      "3F"
    ],
    "type": "mall",
    "id": "centralSuratthani",
    "name": "Central Suratthani",
    "shortName": "Central ST",
    "lat": 9.1385,
    "lng": 99.3285,
    "latitude": 9.1385,
    "longitude": 99.3285,
    "province": "สุราษฎร์ธานี",
    "isGiantActive": true,
    "is_giant_active": true,
    "icon": "🏬",
    "source": "seed-thailand-master"
  },
  "centralUbon": {
    "floors": [
      "G",
      "1F",
      "2F",
      "3F"
    ],
    "type": "mall",
    "id": "centralUbon",
    "name": "Central Ubon",
    "shortName": "Central UB",
    "lat": 15.2285,
    "lng": 104.8565,
    "latitude": 15.2285,
    "longitude": 104.8565,
    "province": "อุบลราชธานี",
    "isGiantActive": true,
    "is_giant_active": true,
    "icon": "🏬",
    "source": "seed-thailand-master"
  },
  "centralUdon": {
    "floors": [
      "G",
      "1F",
      "2F",
      "3F"
    ],
    "type": "mall",
    "id": "centralUdon",
    "name": "Central Udon",
    "shortName": "Central UD",
    "lat": 17.4155,
    "lng": 102.7875,
    "latitude": 17.4155,
    "longitude": 102.7875,
    "province": "อุดรธานี",
    "isGiantActive": true,
    "is_giant_active": true,
    "icon": "🏬",
    "source": "seed-thailand-master"
  },
  "centralWestgate": {
    "floors": [
      "G",
      "1F",
      "2F",
      "3F",
      "4F",
      "5F"
    ],
    "type": "mall",
    "id": "centralWestgate",
    "name": "CentralPlaza WestGate",
    "shortName": "WestGate",
    "lat": 13.8775,
    "lng": 100.4098,
    "latitude": 13.8775,
    "longitude": 100.4098,
    "province": "กรุงเทพฯ",
    "isGiantActive": true,
    "is_giant_active": true,
    "icon": "🚪",
    "source": "seed-thailand-master"
  },
  "centralWestGateNT": {
    "floors": [
      "G",
      "1F",
      "2F",
      "3F",
      "4F",
      "5F"
    ],
    "type": "mall",
    "id": "centralWestGateNT",
    "name": "Central WestGate",
    "shortName": "WestGate",
    "lat": 13.8775,
    "lng": 100.4098,
    "latitude": 13.8775,
    "longitude": 100.4098,
    "province": "นนทบุรี",
    "isGiantActive": true,
    "is_giant_active": true,
    "icon": "🚪",
    "source": "seed-thailand-master"
  },
  "centralWorld": {
    "floors": [
      "B1",
      "G",
      "1F",
      "2F",
      "3F",
      "4F",
      "5F",
      "6F",
      "7F"
    ],
    "type": "mega_mall",
    "id": "centralWorld",
    "name": "CentralWorld",
    "shortName": "CentralWorld",
    "lat": 13.7466,
    "lng": 100.5392,
    "latitude": 13.7466,
    "longitude": 100.5392,
    "province": "กรุงเทพฯ",
    "isGiantActive": true,
    "is_giant_active": true,
    "icon": "🌍",
    "source": "seed-thailand-master"
  },
  "dianaMall": {
    "floors": [
      "G",
      "1F",
      "2F",
      "3F",
      "4F"
    ],
    "type": "mall",
    "id": "dianaMall",
    "name": "Diana Mall Hatyai",
    "shortName": "Diana",
    "lat": 7.0095,
    "lng": 100.4685,
    "latitude": 7.0095,
    "longitude": 100.4685,
    "province": "สงขลา",
    "isGiantActive": true,
    "is_giant_active": true,
    "icon": "👸",
    "source": "seed-thailand-master"
  },
  "emporium": {
    "floors": [
      "B1",
      "G",
      "1F",
      "2F",
      "3F",
      "4F",
      "5F"
    ],
    "type": "luxury_mall",
    "id": "emporium",
    "name": "Emporium",
    "shortName": "Emporium",
    "lat": 13.7305,
    "lng": 100.5695,
    "latitude": 13.7305,
    "longitude": 100.5695,
    "province": "กรุงเทพฯ",
    "isGiantActive": true,
    "is_giant_active": true,
    "icon": "👑",
    "source": "seed-thailand-master"
  },
  "emquartier": {
    "floors": [
      "B1",
      "G",
      "1F",
      "2F",
      "3F",
      "4F",
      "5F"
    ],
    "type": "luxury_mall",
    "id": "emquartier",
    "name": "EmQuartier",
    "shortName": "EmQuartier",
    "lat": 13.7308,
    "lng": 100.5695,
    "latitude": 13.7308,
    "longitude": 100.5695,
    "province": "กรุงเทพฯ",
    "isGiantActive": true,
    "is_giant_active": true,
    "icon": "✨",
    "source": "seed-thailand-master"
  },
  "fashionIsland": {
    "floors": [
      "G",
      "1F",
      "2F",
      "3F",
      "4F"
    ],
    "type": "mall",
    "id": "fashionIsland",
    "name": "Fashion Island",
    "shortName": "Fashion Island",
    "lat": 13.8445,
    "lng": 100.6298,
    "latitude": 13.8445,
    "longitude": 100.6298,
    "province": "กรุงเทพฯ",
    "isGiantActive": true,
    "is_giant_active": true,
    "icon": "🏝️",
    "source": "seed-thailand-master"
  },
  "futureRangsit": {
    "floors": [
      "G",
      "1F",
      "2F",
      "3F"
    ],
    "type": "mega_mall",
    "id": "futureRangsit",
    "name": "Future Park Rangsit",
    "shortName": "Future Park",
    "lat": 13.9885,
    "lng": 100.6155,
    "latitude": 13.9885,
    "longitude": 100.6155,
    "province": "กรุงเทพฯ",
    "isGiantActive": true,
    "is_giant_active": true,
    "icon": "🚀",
    "source": "seed-thailand-master"
  },
  "futureRangsitPT": {
    "floors": [
      "G",
      "1F",
      "2F",
      "3F"
    ],
    "type": "mega_mall",
    "id": "futureRangsitPT",
    "name": "Future Park Rangsit",
    "shortName": "Future Park",
    "lat": 13.9885,
    "lng": 100.6155,
    "latitude": 13.9885,
    "longitude": 100.6155,
    "province": "ปทุมธานี",
    "isGiantActive": true,
    "is_giant_active": true,
    "icon": "🚀",
    "source": "seed-thailand-master"
  },
  "gaysornVillage": {
    "floors": [
      "G",
      "1F",
      "2F",
      "3F",
      "4F",
      "5F"
    ],
    "type": "luxury_mall",
    "id": "gaysornVillage",
    "name": "Gaysorn Village",
    "shortName": "Gaysorn",
    "lat": 13.7455,
    "lng": 100.5402,
    "latitude": 13.7455,
    "longitude": 100.5402,
    "province": "กรุงเทพฯ",
    "isGiantActive": true,
    "is_giant_active": true,
    "icon": "💫",
    "source": "seed-thailand-master"
  },
  "harborPattaya": {
    "floors": [
      "G",
      "1F",
      "2F"
    ],
    "type": "mall",
    "id": "harborPattaya",
    "name": "Harbor Pattaya",
    "shortName": "Harbor",
    "lat": 12.9188,
    "lng": 100.8695,
    "latitude": 12.9188,
    "longitude": 100.8695,
    "province": "ชลบุรี",
    "isGiantActive": true,
    "is_giant_active": true,
    "icon": "⚓",
    "source": "seed-thailand-master"
  },
  "iconsiam": {
    "floors": [
      "B1",
      "G",
      "M",
      "1F",
      "2F",
      "3F",
      "4F",
      "5F",
      "6F"
    ],
    "type": "luxury_mall",
    "id": "iconsiam",
    "name": "ICONSIAM",
    "shortName": "ICONSIAM",
    "lat": 13.7265,
    "lng": 100.5105,
    "latitude": 13.7265,
    "longitude": 100.5105,
    "province": "กรุงเทพฯ",
    "isGiantActive": true,
    "is_giant_active": true,
    "icon": "🏛️",
    "source": "seed-thailand-master"
  },
  "jungceylon": {
    "floors": [
      "G",
      "1F",
      "2F"
    ],
    "type": "mall",
    "id": "jungceylon",
    "name": "Jungceylon",
    "shortName": "Jungceylon",
    "lat": 7.8912,
    "lng": 98.2975,
    "latitude": 7.8912,
    "longitude": 98.2975,
    "province": "ภูเก็ต",
    "isGiantActive": true,
    "is_giant_active": true,
    "icon": "🌊",
    "source": "seed-thailand-master"
  },
  "kadSuanKaew": {
    "floors": [
      "G",
      "1F",
      "2F",
      "3F"
    ],
    "type": "mall",
    "id": "kadSuanKaew",
    "name": "Kad Suan Kaew",
    "shortName": "กาดสวนแก้ว",
    "lat": 18.7925,
    "lng": 98.9675,
    "latitude": 18.7925,
    "longitude": 98.9675,
    "province": "เชียงใหม่",
    "isGiantActive": true,
    "is_giant_active": true,
    "icon": "🌸",
    "source": "seed-thailand-master",
    "zone": "หัวยแก้ว",
    "floorNames": {
      "G": "Fashion & Supermarket",
      "1F": "Fashion & Lifestyle",
      "2F": "Electronics & IT",
      "3F": "Food Court & Entertainment"
    },
    "floorPlanUrls": {
      "G": "/data/floorplans/kadsuankaew-g.png",
      "1F": "/data/floorplans/kadsuankaew-g.png",
      "2F": "/data/floorplans/kadsuankaew-g.png",
      "3F": "/data/floorplans/kadsuankaew-g.png"
    },
    "floorShops": {
      "G": [
        "Tops Market",
        "Fashion Zone"
      ],
      "1F": [
        "Local Brands",
        "Lifestyle Stores"
      ],
      "2F": [
        "IT City",
        "Electronics"
      ],
      "3F": [
        "Food Court",
        "Entertainment Zone"
      ]
    },
    "poiLegendMeta": {
      "entrance": {
        "label": "ทางเข้า",
        "color": "#22C55E",
        "icon": "🚪",
        "group": "Access",
        "order": 1,
        "sort": 10
      },
      "escalator": {
        "label": "บันไดเลื่อน",
        "color": "#F59E0B",
        "icon": "⬆️",
        "group": "Access",
        "order": 1,
        "sort": 30
      },
      "toilet": {
        "label": "ห้องน้ำ",
        "color": "#0EA5E9",
        "icon": "🚻",
        "group": "Facilities",
        "order": 2,
        "sort": 10
      },
      "food": {
        "label": "อาหาร",
        "color": "#EF4444",
        "icon": "🍽️",
        "group": "Food",
        "order": 4,
        "sort": 10
      },
      "shop": {
        "label": "ร้านค้า",
        "color": "#8B5CF6",
        "icon": "🛍️",
        "group": "Shopping",
        "order": 5,
        "sort": 10
      },
      "entertainment": {
        "label": "เอนเตอร์เทน",
        "color": "#F472B6",
        "icon": "🎮",
        "group": "Entertainment",
        "order": 6,
        "sort": 10
      }
    },
    "indoorNavByFloor": {
      "G": [
        {
          "id": "ksk-g-entrance-main",
          "type": "entrance",
          "label": "Main Entrance (Huay Kaew)",
          "lat": 18.7935,
          "lng": 98.9675,
          "zoneNo": "1"
        },
        {
          "id": "ksk-g-market",
          "type": "shop",
          "label": "Market Zone",
          "lat": 18.792,
          "lng": 98.9665,
          "zoneNo": "2"
        },
        {
          "id": "ksk-g-escalator",
          "type": "escalator",
          "label": "Escalators",
          "lat": 18.7925,
          "lng": 98.9675,
          "zoneNo": "3"
        },
        {
          "id": "ksk-g-toilet",
          "type": "toilet",
          "label": "Restrooms",
          "lat": 18.793,
          "lng": 98.9685,
          "zoneNo": "4"
        }
      ],
      "3F": [
        {
          "id": "ksk-3f-foodcourt",
          "type": "food",
          "label": "Food Court",
          "lat": 18.7928,
          "lng": 98.967,
          "zoneNo": "1"
        },
        {
          "id": "ksk-3f-it",
          "type": "shop",
          "label": "IT City",
          "lat": 18.7922,
          "lng": 98.968,
          "zoneNo": "2"
        },
        {
          "id": "ksk-3f-entertainment",
          "type": "entertainment",
          "label": "Entertainment Zone",
          "lat": 18.7918,
          "lng": 98.967,
          "zoneNo": "3"
        }
      ]
    },
    "openTime": "10:00",
    "closeTime": "21:00"
  },
  "leeGardens": {
    "floors": [
      "G",
      "1F",
      "2F",
      "3F"
    ],
    "type": "mall",
    "id": "leeGardens",
    "name": "Lee Gardens Plaza",
    "shortName": "Lee Gardens",
    "lat": 7.0065,
    "lng": 100.4715,
    "latitude": 7.0065,
    "longitude": 100.4715,
    "province": "สงขลา",
    "isGiantActive": true,
    "is_giant_active": true,
    "icon": "🌳",
    "source": "seed-thailand-master"
  },
  "marketVillageHuaHin": {
    "floors": [
      "G",
      "1F"
    ],
    "type": "mall",
    "id": "marketVillageHuaHin",
    "name": "Market Village Hua Hin",
    "shortName": "Market Village",
    "lat": 12.5715,
    "lng": 99.9525,
    "latitude": 12.5715,
    "longitude": 99.9525,
    "province": "ประจวบคีรีขันธ์",
    "isGiantActive": true,
    "is_giant_active": true,
    "icon": "🏘️",
    "source": "seed-thailand-master"
  },
  "maya": {
    "floors": [
      "B1",
      "G",
      "1F",
      "2F",
      "3F",
      "4F",
      "Rooftop"
    ],
    "type": "mall",
    "id": "maya",
    "name": "Maya Lifestyle Shopping Center",
    "shortName": "Maya",
    "lat": 18.8021,
    "lng": 98.9675,
    "latitude": 18.8021,
    "longitude": 98.9675,
    "province": "เชียงใหม่",
    "isGiantActive": true,
    "is_giant_active": true,
    "icon": "🏬",
    "source": "seed-thailand-master",
    "zone": "นิมมาน",
    "floorNames": {
      "B1": "Groceries & Parking",
      "G": "Fashion & Essentials",
      "1F": "Fashion & Lifestyle",
      "2F": "Tech & Gadgets",
      "3F": "Restaurants",
      "4F": "Entertainment & Food Court",
      "Rooftop": "Rooftop Bar & Views"
    },
    "floorPlanUrls": {
      "B1": "/data/floorplans/maya-b1.png",
      "G": "/data/floorplans/maya-g.png",
      "1F": "/data/floorplans/maya-g.png",
      "2F": "/data/floorplans/maya-g.png",
      "3F": "/data/floorplans/maya-3f.png",
      "4F": "/data/floorplans/maya-4f.png",
      "Rooftop": "/data/floorplans/maya-rooftop.png"
    },
    "floorShops": {
      "B1": [
        "Rimping Supermarket"
      ],
      "G": [
        "H&M",
        "Uniqlo",
        "Starbucks"
      ],
      "1F": [
        "ZARA",
        "Mango",
        "CC-OO"
      ],
      "2F": [
        "Electronics",
        "Thai SIM Cards"
      ],
      "3F": [
        "Shabushi",
        "MK Restaurant"
      ],
      "4F": [
        "Food Court",
        "SFX Cinema"
      ],
      "Rooftop": [
        "Myst Maya",
        "Level 9 Maya",
        "Nimman Hill"
      ]
    },
    "poiLegendMeta": {
      "entrance": {
        "label": "ทางเข้า",
        "color": "#22C55E",
        "icon": "🚪",
        "group": "Access",
        "order": 1,
        "sort": 10
      },
      "lift": {
        "label": "ลิฟต์",
        "color": "#A855F7",
        "icon": "🛗",
        "group": "Access",
        "order": 1,
        "sort": 20
      },
      "escalator": {
        "label": "บันไดเลื่อน",
        "color": "#F59E0B",
        "icon": "⬆️",
        "group": "Access",
        "order": 1,
        "sort": 30
      },
      "stairs": {
        "label": "บันได",
        "color": "#D97706",
        "icon": "🪜",
        "group": "Access",
        "order": 1,
        "sort": 40
      },
      "toilet": {
        "label": "ห้องน้ำ",
        "color": "#0EA5E9",
        "icon": "🚻",
        "group": "Facilities",
        "order": 2,
        "sort": 10
      },
      "atm": {
        "label": "ตู้ ATM",
        "color": "#10B981",
        "icon": "🏧",
        "group": "Facilities",
        "order": 2,
        "sort": 20
      },
      "info": {
        "label": "ประชาสัมพันธ์",
        "color": "#38BDF8",
        "icon": "ℹ️",
        "group": "Services",
        "order": 3,
        "sort": 10
      },
      "food": {
        "label": "อาหาร",
        "color": "#EF4444",
        "icon": "🍽️",
        "group": "Food",
        "order": 4,
        "sort": 10
      },
      "cafe": {
        "label": "คาเฟ่",
        "color": "#92400E",
        "icon": "☕",
        "group": "Food",
        "order": 4,
        "sort": 20
      },
      "dessert": {
        "label": "ขนมหวาน",
        "color": "#EC4899",
        "icon": "🍰",
        "group": "Food",
        "order": 4,
        "sort": 30
      },
      "shop": {
        "label": "ร้านค้า",
        "color": "#8B5CF6",
        "icon": "🛍️",
        "group": "Shopping",
        "order": 5,
        "sort": 10
      },
      "fashion": {
        "label": "แฟชั่น",
        "color": "#E11D48",
        "icon": "👗",
        "group": "Shopping",
        "order": 5,
        "sort": 20
      },
      "cinema": {
        "label": "โรงหนัง",
        "color": "#6366F1",
        "icon": "🎬",
        "group": "Entertainment",
        "order": 6,
        "sort": 10
      },
      "entertainment": {
        "label": "เอนเตอร์เทน",
        "color": "#F472B6",
        "icon": "🎮",
        "group": "Entertainment",
        "order": 6,
        "sort": 20
      },
      "landmark": {
        "label": "สถานที่สำคัญ",
        "color": "#FBBF24",
        "icon": "⭐",
        "group": "Landmark",
        "order": 7,
        "sort": 10
      },
      "parking": {
        "label": "ที่จอดรถ",
        "color": "#64748B",
        "icon": "🅿️",
        "group": "Parking",
        "order": 8,
        "sort": 10
      }
    },
    "indoorNavByFloor": {
      "B1": [
        {
          "id": "maya-b1-parking-east-1",
          "type": "parking",
          "label": "Parking Entrance/Exit (East)",
          "lat": 18.8025,
          "lng": 98.9712,
          "zoneNo": "1"
        },
        {
          "id": "maya-b1-parking-west",
          "type": "parking",
          "label": "Parking (West)",
          "lat": 18.802,
          "lng": 98.9638,
          "zoneNo": "2"
        },
        {
          "id": "maya-b1-escalator-core",
          "type": "escalator",
          "label": "Escalators Core",
          "lat": 18.8021,
          "lng": 98.9675,
          "zoneNo": "3"
        },
        {
          "id": "maya-b1-lift-core",
          "type": "lift",
          "label": "Lift Core",
          "lat": 18.8024,
          "lng": 98.9678,
          "zoneNo": "4"
        },
        {
          "id": "maya-b1-toilet-west",
          "type": "toilet",
          "label": "Restrooms (West)",
          "lat": 18.8015,
          "lng": 98.9645,
          "zoneNo": "5"
        },
        {
          "id": "maya-b1-toilet-east",
          "type": "toilet",
          "label": "Restrooms (East)",
          "lat": 18.8028,
          "lng": 98.9705,
          "zoneNo": "6"
        }
      ],
      "G": [
        {
          "id": "maya-g-entrance-main",
          "type": "entrance",
          "label": "Main Entrance (South)",
          "lat": 18.7975,
          "lng": 98.9675,
          "zoneNo": "1"
        },
        {
          "id": "maya-g-hm",
          "type": "fashion",
          "label": "H&M Retail Zone",
          "lat": 18.7995,
          "lng": 98.965,
          "zoneNo": "2"
        },
        {
          "id": "maya-g-uniqlo",
          "type": "fashion",
          "label": "UNIQLO",
          "lat": 18.7995,
          "lng": 98.9702,
          "zoneNo": "3"
        },
        {
          "id": "maya-g-starbucks",
          "type": "cafe",
          "label": "Starbucks",
          "lat": 18.8035,
          "lng": 98.9705,
          "zoneNo": "4"
        },
        {
          "id": "maya-g-escalator-up",
          "type": "escalator",
          "label": "Escalator Up",
          "lat": 18.801,
          "lng": 98.9665,
          "zoneNo": "5"
        },
        {
          "id": "maya-g-escalator-down",
          "type": "escalator",
          "label": "Escalator Down",
          "lat": 18.801,
          "lng": 98.9688,
          "zoneNo": "6"
        },
        {
          "id": "maya-g-lift-core",
          "type": "lift",
          "label": "Lift Core",
          "lat": 18.802,
          "lng": 98.968,
          "zoneNo": "7"
        }
      ],
      "1F": [
        {
          "id": "maya-1f-escalator-up",
          "type": "escalator",
          "label": "Escalator Up",
          "lat": 18.801,
          "lng": 98.9665,
          "zoneNo": "1"
        },
        {
          "id": "maya-1f-escalator-down",
          "type": "escalator",
          "label": "Escalator Down",
          "lat": 18.801,
          "lng": 98.9688,
          "zoneNo": "2"
        },
        {
          "id": "maya-1f-lift-core",
          "type": "lift",
          "label": "Lift Core",
          "lat": 18.802,
          "lng": 98.968,
          "zoneNo": "3"
        },
        {
          "id": "maya-1f-zara",
          "type": "fashion",
          "label": "ZARA",
          "lat": 18.7995,
          "lng": 98.9655,
          "zoneNo": "4"
        },
        {
          "id": "maya-1f-mango",
          "type": "fashion",
          "label": "Mango",
          "lat": 18.803,
          "lng": 98.9665,
          "zoneNo": "5"
        },
        {
          "id": "maya-1f-toilet",
          "type": "toilet",
          "label": "Restrooms",
          "lat": 18.804,
          "lng": 98.971,
          "zoneNo": "6"
        }
      ],
      "2F": [
        {
          "id": "maya-2f-escalator-up",
          "type": "escalator",
          "label": "Escalator Up",
          "lat": 18.801,
          "lng": 98.9665,
          "zoneNo": "1"
        },
        {
          "id": "maya-2f-escalator-down",
          "type": "escalator",
          "label": "Escalator Down",
          "lat": 18.801,
          "lng": 98.9688,
          "zoneNo": "2"
        },
        {
          "id": "maya-2f-lift-core",
          "type": "lift",
          "label": "Lift Core",
          "lat": 18.802,
          "lng": 98.968,
          "zoneNo": "3"
        },
        {
          "id": "maya-2f-electronics",
          "type": "shop",
          "label": "Electronics",
          "lat": 18.7995,
          "lng": 98.966,
          "zoneNo": "4"
        },
        {
          "id": "maya-2f-thai-sim",
          "type": "shop",
          "label": "Thai SIM Cards",
          "lat": 18.803,
          "lng": 98.9695,
          "zoneNo": "5"
        },
        {
          "id": "maya-2f-toilet",
          "type": "toilet",
          "label": "Restrooms",
          "lat": 18.804,
          "lng": 98.971,
          "zoneNo": "6"
        }
      ],
      "3F": [
        {
          "id": "maya-3f-entrance-south",
          "type": "entrance",
          "label": "Entrance (South)",
          "lat": 18.798,
          "lng": 98.9675,
          "zoneNo": "1"
        },
        {
          "id": "maya-3f-escalator-west",
          "type": "escalator",
          "label": "Escalator (West)",
          "lat": 18.801,
          "lng": 98.965,
          "zoneNo": "2"
        },
        {
          "id": "maya-3f-escalator-east",
          "type": "escalator",
          "label": "Escalator (East)",
          "lat": 18.801,
          "lng": 98.9702,
          "zoneNo": "3"
        },
        {
          "id": "maya-3f-shabushi",
          "type": "food",
          "label": "Shabushi",
          "lat": 18.8025,
          "lng": 98.9658,
          "zoneNo": "4"
        },
        {
          "id": "maya-3f-mk",
          "type": "food",
          "label": "MK Restaurant",
          "lat": 18.8025,
          "lng": 98.9695,
          "zoneNo": "5"
        },
        {
          "id": "maya-3f-toilet-nw",
          "type": "toilet",
          "label": "Restrooms (NW)",
          "lat": 18.8042,
          "lng": 98.9648,
          "zoneNo": "6"
        }
      ],
      "4F": [
        {
          "id": "maya-4f-entrance-south",
          "type": "entrance",
          "label": "Entrance (South)",
          "lat": 18.7975,
          "lng": 98.9675,
          "zoneNo": "1"
        },
        {
          "id": "maya-4f-entrance-east",
          "type": "entrance",
          "label": "Entrance (East)",
          "lat": 18.801,
          "lng": 98.9718,
          "zoneNo": "2"
        },
        {
          "id": "maya-4f-sfx-cinema",
          "type": "cinema",
          "label": "SFX Cinema",
          "lat": 18.804,
          "lng": 98.9645,
          "zoneNo": "3"
        },
        {
          "id": "maya-4f-cinema-lobby",
          "type": "cinema",
          "label": "Cinema Lobby",
          "lat": 18.8025,
          "lng": 98.9655,
          "zoneNo": "4"
        },
        {
          "id": "maya-4f-ticket",
          "type": "info",
          "label": "Ticket Counter",
          "lat": 18.802,
          "lng": 98.9665,
          "zoneNo": "5"
        },
        {
          "id": "maya-4f-foodcourt",
          "type": "food",
          "label": "Food Court",
          "lat": 18.8005,
          "lng": 98.968,
          "zoneNo": "6"
        },
        {
          "id": "maya-4f-stage",
          "type": "entertainment",
          "label": "Stage",
          "lat": 18.7995,
          "lng": 98.968,
          "zoneNo": "7"
        },
        {
          "id": "maya-4f-arcade",
          "type": "entertainment",
          "label": "Arcade",
          "lat": 18.8022,
          "lng": 98.9705,
          "zoneNo": "8"
        },
        {
          "id": "maya-4f-entertainment",
          "type": "entertainment",
          "label": "Entertainment Zone",
          "lat": 18.8005,
          "lng": 98.9705,
          "zoneNo": "9"
        },
        {
          "id": "maya-4f-bowling",
          "type": "entertainment",
          "label": "Bowling Alley",
          "lat": 18.801,
          "lng": 98.9718,
          "zoneNo": "10"
        },
        {
          "id": "maya-4f-escape",
          "type": "entertainment",
          "label": "Escape Rooms",
          "lat": 18.799,
          "lng": 98.9708,
          "zoneNo": "11"
        }
      ],
      "Rooftop": [
        {
          "id": "maya-roof-entrance",
          "type": "entrance",
          "label": "Rooftop Entrance",
          "lat": 18.7985,
          "lng": 98.9675,
          "zoneNo": "1"
        },
        {
          "id": "maya-roof-myst",
          "type": "food",
          "label": "Myst Maya (Bar)",
          "lat": 18.8005,
          "lng": 98.9655,
          "zoneNo": "2"
        },
        {
          "id": "maya-roof-level9",
          "type": "food",
          "label": "Level 9 Maya",
          "lat": 18.802,
          "lng": 98.9682,
          "zoneNo": "3"
        },
        {
          "id": "maya-roof-nimman-hill",
          "type": "landmark",
          "label": "Nimman Hill (Deck)",
          "lat": 18.8035,
          "lng": 98.97,
          "zoneNo": "4"
        },
        {
          "id": "maya-roof-view",
          "type": "landmark",
          "label": "City View Point",
          "lat": 18.804,
          "lng": 98.968,
          "zoneNo": "5"
        }
      ]
    },
    "openTime": "10:00",
    "closeTime": "22:00"
  },
  "mbkCenter": {
    "floors": [
      "G",
      "1F",
      "2F",
      "3F",
      "4F",
      "5F",
      "6F",
      "7F"
    ],
    "type": "mall",
    "id": "mbkCenter",
    "name": "MBK Center",
    "shortName": "MBK",
    "lat": 13.7444,
    "lng": 100.53,
    "latitude": 13.7444,
    "longitude": 100.53,
    "province": "กรุงเทพฯ",
    "isGiantActive": true,
    "is_giant_active": true,
    "icon": "🏬",
    "source": "seed-thailand-master"
  },
  "megaBangna": {
    "floors": [
      "G",
      "1F",
      "2F"
    ],
    "type": "mega_mall",
    "id": "megaBangna",
    "name": "Mega Bangna",
    "shortName": "Mega Bangna",
    "lat": 13.651,
    "lng": 100.7149,
    "latitude": 13.651,
    "longitude": 100.7149,
    "province": "กรุงเทพฯ",
    "isGiantActive": true,
    "is_giant_active": true,
    "icon": "🛒",
    "source": "seed-thailand-master"
  },
  "megaBangnaSP": {
    "floors": [
      "G",
      "1F",
      "2F"
    ],
    "type": "mega_mall",
    "id": "megaBangnaSP",
    "name": "Mega Bangna",
    "shortName": "Mega",
    "lat": 13.651,
    "lng": 100.7149,
    "latitude": 13.651,
    "longitude": 100.7149,
    "province": "สมุทรปราการ",
    "isGiantActive": true,
    "is_giant_active": true,
    "icon": "🛒",
    "source": "seed-thailand-master"
  },
  "oneNimman": {
    "floors": [
      "G",
      "1F",
      "2F"
    ],
    "type": "community_mall",
    "id": "oneNimman",
    "name": "One Nimman",
    "shortName": "One Nimman",
    "lat": 18.8001,
    "lng": 98.9682,
    "latitude": 18.8001,
    "longitude": 98.9682,
    "province": "เชียงใหม่",
    "isGiantActive": true,
    "is_giant_active": true,
    "icon": "🏢",
    "source": "seed-thailand-master",
    "zone": "นิมมาน",
    "floorNames": {
      "G": "Cafes & Central Plaza",
      "1F": "Fashion & Restaurants",
      "2F": "Souvenirs & Thai Products"
    },
    "floorPlanUrls": {
      "G": "/data/floorplans/onenimman-g.png",
      "1F": "/data/floorplans/onenimman-1f.png",
      "2F": "/data/floorplans/onenimman-2f.png"
    },
    "floorShops": {
      "G": [
        "Graph Cafe",
        "%Arabica Coffee",
        "Ginger Farm Kitchen",
        "Mango Tango",
        "Art Galleries"
      ],
      "1F": [
        "Mo-Mo-Paradise",
        "Food Court 50+ Restaurants",
        "Fashion Boutiques",
        "Lifestyle Stores"
      ],
      "2F": [
        "Thai Souvenirs Market",
        "Traditional Health Products",
        "Thai Handicrafts",
        "Brand Name Shops"
      ]
    },
    "poiLegendMeta": {
      "entrance": {
        "label": "ทางเข้า",
        "color": "#22C55E",
        "icon": "🚪",
        "group": "Access",
        "order": 1,
        "sort": 10
      },
      "lift": {
        "label": "ลิฟต์",
        "color": "#A855F7",
        "icon": "🛗",
        "group": "Access",
        "order": 1,
        "sort": 20
      },
      "escalator": {
        "label": "บันไดเลื่อน",
        "color": "#F59E0B",
        "icon": "⬆️",
        "group": "Access",
        "order": 1,
        "sort": 30
      },
      "stairs": {
        "label": "บันได",
        "color": "#D97706",
        "icon": "🪜",
        "group": "Access",
        "order": 1,
        "sort": 40
      },
      "toilet": {
        "label": "ห้องน้ำ",
        "color": "#0EA5E9",
        "icon": "🚻",
        "group": "Facilities",
        "order": 2,
        "sort": 10
      },
      "info": {
        "label": "ประชาสัมพันธ์",
        "color": "#38BDF8",
        "icon": "ℹ️",
        "group": "Services",
        "order": 3,
        "sort": 10
      },
      "food": {
        "label": "อาหาร",
        "color": "#EF4444",
        "icon": "🍽️",
        "group": "Food",
        "order": 4,
        "sort": 10
      },
      "cafe": {
        "label": "คาเฟ่",
        "color": "#92400E",
        "icon": "☕",
        "group": "Food",
        "order": 4,
        "sort": 20
      },
      "dessert": {
        "label": "ขนมหวาน",
        "color": "#EC4899",
        "icon": "🍰",
        "group": "Food",
        "order": 4,
        "sort": 30
      },
      "shop": {
        "label": "ร้านค้า",
        "color": "#8B5CF6",
        "icon": "🛍️",
        "group": "Shopping",
        "order": 5,
        "sort": 10
      },
      "fashion": {
        "label": "แฟชั่น",
        "color": "#E11D48",
        "icon": "👗",
        "group": "Shopping",
        "order": 5,
        "sort": 20
      },
      "landmark": {
        "label": "สถานที่สำคัญ",
        "color": "#FBBF24",
        "icon": "⭐",
        "group": "Landmark",
        "order": 6,
        "sort": 10
      },
      "parking": {
        "label": "ที่จอดรถ",
        "color": "#64748B",
        "icon": "🅿️",
        "group": "Parking",
        "order": 7,
        "sort": 10
      }
    },
    "indoorNavByFloor": {
      "G": [
        {
          "id": "onenimman-g-entrance",
          "type": "entrance",
          "label": "Main Entrance (Nimman Rd)",
          "lat": 18.7965,
          "lng": 98.9682,
          "zoneNo": "1"
        },
        {
          "id": "onenimman-g-clock-tower",
          "type": "landmark",
          "label": "Clock Tower",
          "lat": 18.8001,
          "lng": 98.9682,
          "zoneNo": "2"
        },
        {
          "id": "onenimman-g-graph-cafe",
          "type": "cafe",
          "label": "Graph Cafe",
          "lat": 18.803,
          "lng": 98.9682,
          "zoneNo": "3"
        },
        {
          "id": "onenimman-g-arabica",
          "type": "cafe",
          "label": "%Arabica Coffee",
          "lat": 18.8022,
          "lng": 98.9708,
          "zoneNo": "4"
        },
        {
          "id": "onenimman-g-ginger-farm",
          "type": "food",
          "label": "Ginger Farm Kitchen",
          "lat": 18.8001,
          "lng": 98.9718,
          "zoneNo": "5"
        },
        {
          "id": "onenimman-g-mango-tango",
          "type": "dessert",
          "label": "Mango Tango",
          "lat": 18.7978,
          "lng": 98.9708,
          "zoneNo": "6"
        },
        {
          "id": "onenimman-g-art-galleries",
          "type": "shop",
          "label": "Art Galleries",
          "lat": 18.7978,
          "lng": 98.9655,
          "zoneNo": "7"
        },
        {
          "id": "onenimman-g-fashion",
          "type": "fashion",
          "label": "Fashion Boutiques",
          "lat": 18.8001,
          "lng": 98.9648,
          "zoneNo": "8"
        }
      ],
      "1F": [
        {
          "id": "onenimman-1f-lifestyle",
          "type": "shop",
          "label": "Lifestyle Stores",
          "lat": 18.8032,
          "lng": 98.9682,
          "zoneNo": "1"
        },
        {
          "id": "onenimman-1f-escalator-nw",
          "type": "escalator",
          "label": "Escalators to G (NW)",
          "lat": 18.8028,
          "lng": 98.9652,
          "zoneNo": "2"
        },
        {
          "id": "onenimman-1f-escalator-ne",
          "type": "escalator",
          "label": "Escalators to G (NE)",
          "lat": 18.8028,
          "lng": 98.971,
          "zoneNo": "3"
        },
        {
          "id": "onenimman-1f-momopara",
          "type": "food",
          "label": "Mo-Mo-Paradise",
          "lat": 18.801,
          "lng": 98.9655,
          "zoneNo": "4"
        },
        {
          "id": "onenimman-1f-central-plaza",
          "type": "landmark",
          "label": "Central Open Plaza",
          "lat": 18.7995,
          "lng": 98.9682,
          "zoneNo": "5"
        },
        {
          "id": "onenimman-1f-foodcourt",
          "type": "food",
          "label": "Food Court Area 50+",
          "lat": 18.801,
          "lng": 98.9708,
          "zoneNo": "6"
        },
        {
          "id": "onenimman-1f-fashion",
          "type": "fashion",
          "label": "Fashion Boutiques",
          "lat": 18.8005,
          "lng": 98.9648,
          "zoneNo": "7"
        },
        {
          "id": "onenimman-1f-escalator-sw",
          "type": "escalator",
          "label": "Escalators to G (SW)",
          "lat": 18.7972,
          "lng": 98.9655,
          "zoneNo": "8"
        },
        {
          "id": "onenimman-1f-escalator-se",
          "type": "escalator",
          "label": "Escalators to G (SE)",
          "lat": 18.7972,
          "lng": 98.9708,
          "zoneNo": "9"
        }
      ],
      "2F": [
        {
          "id": "onenimman-2f-escalator",
          "type": "escalator",
          "label": "Escalators Down",
          "lat": 18.7975,
          "lng": 98.9708,
          "zoneNo": "1"
        },
        {
          "id": "onenimman-2f-souvenirs",
          "type": "shop",
          "label": "Thai Souvenirs Market",
          "lat": 18.8015,
          "lng": 98.966,
          "zoneNo": "2"
        },
        {
          "id": "onenimman-2f-handicrafts",
          "type": "shop",
          "label": "Thai Handicrafts",
          "lat": 18.8025,
          "lng": 98.9695,
          "zoneNo": "3"
        },
        {
          "id": "onenimman-2f-health",
          "type": "shop",
          "label": "Traditional Health Products",
          "lat": 18.8015,
          "lng": 98.9705,
          "zoneNo": "4"
        },
        {
          "id": "onenimman-2f-brands",
          "type": "fashion",
          "label": "Brand Name Shops",
          "lat": 18.8005,
          "lng": 98.9665,
          "zoneNo": "5"
        },
        {
          "id": "onenimman-2f-toilet",
          "type": "toilet",
          "label": "Restrooms",
          "lat": 18.803,
          "lng": 98.971,
          "zoneNo": "6"
        }
      ]
    },
    "openTime": "10:00",
    "closeTime": "22:00"
  },
  "passioneShopping": {
    "floors": [
      "G",
      "1F"
    ],
    "type": "mall",
    "id": "passioneShopping",
    "name": "Passione Shopping Destination",
    "shortName": "Passione",
    "lat": 12.6785,
    "lng": 101.2805,
    "latitude": 12.6785,
    "longitude": 101.2805,
    "province": "ระยอง",
    "isGiantActive": true,
    "is_giant_active": true,
    "icon": "💕",
    "source": "seed-thailand-master"
  },
  "portoPhuket": {
    "floors": [
      "G",
      "1F"
    ],
    "type": "community_mall",
    "id": "portoPhuket",
    "name": "Porto de Phuket",
    "shortName": "Porto",
    "lat": 7.8875,
    "lng": 98.3025,
    "latitude": 7.8875,
    "longitude": 98.3025,
    "province": "ภูเก็ต",
    "isGiantActive": true,
    "is_giant_active": true,
    "icon": "⚓",
    "source": "seed-thailand-master"
  },
  "promenada": {
    "id": "promenada",
    "name": "Promenada Resort Mall",
    "shortName": "Promenada",
    "lat": 18.756,
    "lng": 99.0255,
    "province": "เชียงใหม่",
    "zone": "เจริญเมือง",
    "floors": [
      "G",
      "1F",
      "2F"
    ],
    "floorNames": {
      "G": "Retail & Outdoor Plaza",
      "1F": "Fashion & Lifestyle",
      "2F": "Food & Entertainment"
    },
    "floorPlanUrls": {
      "G": "/data/floorplans/promenada-g.png",
      "1F": "/data/floorplans/promenada-g.png",
      "2F": "/data/floorplans/promenada-g.png"
    },
    "floorShops": {
      "G": [
        "Retail Zones",
        "Central Plaza",
        "Outdoor Market"
      ],
      "1F": [
        "Fashion Brands",
        "Lifestyle Stores"
      ],
      "2F": [
        "Restaurants",
        "Cinema",
        "Entertainment"
      ]
    },
    "poiLegendMeta": {
      "entrance": {
        "label": "ทางเข้า",
        "color": "#22C55E",
        "icon": "🚪",
        "group": "Access",
        "order": 1,
        "sort": 10
      },
      "escalator": {
        "label": "บันไดเลื่อน",
        "color": "#F59E0B",
        "icon": "⬆️",
        "group": "Access",
        "order": 1,
        "sort": 30
      },
      "toilet": {
        "label": "ห้องน้ำ",
        "color": "#0EA5E9",
        "icon": "🚻",
        "group": "Facilities",
        "order": 2,
        "sort": 10
      },
      "food": {
        "label": "อาหาร",
        "color": "#EF4444",
        "icon": "🍽️",
        "group": "Food",
        "order": 4,
        "sort": 10
      },
      "shop": {
        "label": "ร้านค้า",
        "color": "#8B5CF6",
        "icon": "🛍️",
        "group": "Shopping",
        "order": 5,
        "sort": 10
      },
      "landmark": {
        "label": "สถานที่สำคัญ",
        "color": "#FBBF24",
        "icon": "⭐",
        "group": "Landmark",
        "order": 7,
        "sort": 10
      }
    },
    "indoorNavByFloor": {
      "G": [
        {
          "id": "prom-g-entrance-main",
          "type": "entrance",
          "label": "Main Entrance",
          "lat": 18.757,
          "lng": 99.0255,
          "zoneNo": "1"
        },
        {
          "id": "prom-g-plaza",
          "type": "landmark",
          "label": "Central Plaza",
          "lat": 18.756,
          "lng": 99.026,
          "zoneNo": "2"
        },
        {
          "id": "prom-g-retail",
          "type": "shop",
          "label": "Retail Zones",
          "lat": 18.7555,
          "lng": 99.025,
          "zoneNo": "3"
        },
        {
          "id": "prom-g-escalator",
          "type": "escalator",
          "label": "Escalators",
          "lat": 18.756,
          "lng": 99.0255,
          "zoneNo": "4"
        }
      ],
      "2F": [
        {
          "id": "prom-2f-food",
          "type": "food",
          "label": "Restaurant Zone",
          "lat": 18.7565,
          "lng": 99.0258,
          "zoneNo": "1"
        },
        {
          "id": "prom-2f-retail",
          "type": "shop",
          "label": "Retail Zones",
          "lat": 18.7555,
          "lng": 99.0252,
          "zoneNo": "2"
        },
        {
          "id": "prom-2f-toilet",
          "type": "toilet",
          "label": "Restrooms",
          "lat": 18.756,
          "lng": 99.0265,
          "zoneNo": "3"
        }
      ]
    },
    "openTime": "10:00",
    "closeTime": "21:00",
    "latitude": 18.756,
    "longitude": 99.0255,
    "source": "curated"
  },
  "promenadaCNX": {
    "floors": [
      "G",
      "1F"
    ],
    "type": "mall",
    "id": "promenadaCNX",
    "name": "Promenada Resort Mall",
    "shortName": "Promenada",
    "lat": 18.756,
    "lng": 99.0255,
    "latitude": 18.756,
    "longitude": 99.0255,
    "province": "เชียงใหม่",
    "isGiantActive": true,
    "is_giant_active": true,
    "icon": "🌴",
    "source": "seed-thailand-master"
  },
  "robinsonBuriram": {
    "floors": [
      "G",
      "1F",
      "2F"
    ],
    "type": "mall",
    "id": "robinsonBuriram",
    "name": "Robinson Buriram",
    "shortName": "Robinson",
    "lat": 14.9945,
    "lng": 103.1025,
    "latitude": 14.9945,
    "longitude": 103.1025,
    "province": "บุรีรัมย์",
    "isGiantActive": true,
    "is_giant_active": true,
    "icon": "🏬",
    "source": "seed-thailand-master"
  },
  "robinsonChachoengsao": {
    "floors": [
      "G",
      "1F",
      "2F"
    ],
    "type": "mall",
    "id": "robinsonChachoengsao",
    "name": "Robinson Chachoengsao",
    "shortName": "Robinson",
    "lat": 13.6905,
    "lng": 101.0715,
    "latitude": 13.6905,
    "longitude": 101.0715,
    "province": "ฉะเชิงเทรา",
    "isGiantActive": true,
    "is_giant_active": true,
    "icon": "🏬",
    "source": "seed-thailand-master"
  },
  "robinsonChaiyaphum": {
    "floors": [
      "G",
      "1F",
      "2F"
    ],
    "type": "mall",
    "id": "robinsonChaiyaphum",
    "name": "Robinson Chaiyaphum",
    "shortName": "Robinson",
    "lat": 15.8065,
    "lng": 102.0315,
    "latitude": 15.8065,
    "longitude": 102.0315,
    "province": "ชัยภูมิ",
    "isGiantActive": true,
    "is_giant_active": true,
    "icon": "🏬",
    "source": "seed-thailand-master"
  },
  "robinsonChumphon": {
    "floors": [
      "G",
      "1F",
      "2F"
    ],
    "type": "mall",
    "id": "robinsonChumphon",
    "name": "Robinson Chumphon",
    "shortName": "Robinson",
    "lat": 10.4925,
    "lng": 99.1785,
    "latitude": 10.4925,
    "longitude": 99.1785,
    "province": "ชุมพร",
    "isGiantActive": true,
    "is_giant_active": true,
    "icon": "🏬",
    "source": "seed-thailand-master"
  },
  "robinsonKanchanaburi": {
    "floors": [
      "G",
      "1F",
      "2F"
    ],
    "type": "mall",
    "id": "robinsonKanchanaburi",
    "name": "Robinson Kanchanaburi",
    "shortName": "Robinson",
    "lat": 14.0225,
    "lng": 99.5355,
    "latitude": 14.0225,
    "longitude": 99.5355,
    "province": "กาญจนบุรี",
    "isGiantActive": true,
    "is_giant_active": true,
    "icon": "🏬",
    "source": "seed-thailand-master"
  },
  "robinsonLopburi": {
    "floors": [
      "G",
      "1F",
      "2F"
    ],
    "type": "mall",
    "id": "robinsonLopburi",
    "name": "Robinson Lopburi",
    "shortName": "Robinson",
    "lat": 14.8005,
    "lng": 100.6148,
    "latitude": 14.8005,
    "longitude": 100.6148,
    "province": "ลพบุรี",
    "isGiantActive": true,
    "is_giant_active": true,
    "icon": "🏬",
    "source": "seed-thailand-master"
  },
  "robinsonMahaSarakham": {
    "floors": [
      "G",
      "1F",
      "2F"
    ],
    "type": "mall",
    "id": "robinsonMahaSarakham",
    "name": "Robinson Maha Sarakham",
    "shortName": "Robinson",
    "lat": 16.1825,
    "lng": 103.3005,
    "latitude": 16.1825,
    "longitude": 103.3005,
    "province": "มหาสารคาม",
    "isGiantActive": true,
    "is_giant_active": true,
    "icon": "🏬",
    "source": "seed-thailand-master"
  },
  "robinsonPetchaburi": {
    "floors": [
      "G",
      "1F",
      "2F"
    ],
    "type": "mall",
    "id": "robinsonPetchaburi",
    "name": "Robinson Petchaburi",
    "shortName": "Robinson",
    "lat": 13.1105,
    "lng": 99.9455,
    "latitude": 13.1105,
    "longitude": 99.9455,
    "province": "เพชรบุรี",
    "isGiantActive": true,
    "is_giant_active": true,
    "icon": "🏬",
    "source": "seed-thailand-master"
  },
  "robinsonPhetchabun": {
    "floors": [
      "G",
      "1F",
      "2F"
    ],
    "type": "mall",
    "id": "robinsonPhetchabun",
    "name": "Robinson Phetchabun",
    "shortName": "Robinson",
    "lat": 16.4185,
    "lng": 101.1555,
    "latitude": 16.4185,
    "longitude": 101.1555,
    "province": "เพชรบูรณ์",
    "isGiantActive": true,
    "is_giant_active": true,
    "icon": "🏬",
    "source": "seed-thailand-master"
  },
  "robinsonPrachinBuri": {
    "floors": [
      "G",
      "1F",
      "2F"
    ],
    "type": "mall",
    "id": "robinsonPrachinBuri",
    "name": "Robinson Prachin Buri",
    "shortName": "Robinson",
    "lat": 14.0505,
    "lng": 101.3715,
    "latitude": 14.0505,
    "longitude": 101.3715,
    "province": "ปราจีนบุรี",
    "isGiantActive": true,
    "is_giant_active": true,
    "icon": "🏬",
    "source": "seed-thailand-master"
  },
  "robinsonSakonNakhon": {
    "floors": [
      "G",
      "1F",
      "2F"
    ],
    "type": "mall",
    "id": "robinsonSakonNakhon",
    "name": "Robinson Sakon Nakhon",
    "shortName": "Robinson",
    "lat": 17.1565,
    "lng": 104.1485,
    "latitude": 17.1565,
    "longitude": 104.1485,
    "province": "สกลนคร",
    "isGiantActive": true,
    "is_giant_active": true,
    "icon": "🏬",
    "source": "seed-thailand-master"
  },
  "robinsonSaraburi": {
    "floors": [
      "G",
      "1F",
      "2F"
    ],
    "type": "mall",
    "id": "robinsonSaraburi",
    "name": "Robinson Saraburi",
    "shortName": "Robinson",
    "lat": 14.5285,
    "lng": 100.9145,
    "latitude": 14.5285,
    "longitude": 100.9145,
    "province": "สระบุรี",
    "isGiantActive": true,
    "is_giant_active": true,
    "icon": "🏬",
    "source": "seed-thailand-master"
  },
  "robinsonSrisaket": {
    "floors": [
      "G",
      "1F",
      "2F"
    ],
    "type": "mall",
    "id": "robinsonSrisaket",
    "name": "Robinson Si Sa Ket",
    "shortName": "Robinson",
    "lat": 15.1185,
    "lng": 104.3225,
    "latitude": 15.1185,
    "longitude": 104.3225,
    "province": "ศรีสะเกษ",
    "isGiantActive": true,
    "is_giant_active": true,
    "icon": "🏬",
    "source": "seed-thailand-master"
  },
  "robinsonSuphanBuri": {
    "floors": [
      "G",
      "1F",
      "2F"
    ],
    "type": "mall",
    "id": "robinsonSuphanBuri",
    "name": "Robinson Suphan Buri",
    "shortName": "Robinson",
    "lat": 14.4745,
    "lng": 100.1285,
    "latitude": 14.4745,
    "longitude": 100.1285,
    "province": "สุพรรณบุรี",
    "isGiantActive": true,
    "is_giant_active": true,
    "icon": "🏬",
    "source": "seed-thailand-master"
  },
  "robinsonSurin": {
    "floors": [
      "G",
      "1F",
      "2F"
    ],
    "type": "mall",
    "id": "robinsonSurin",
    "name": "Robinson Surin",
    "shortName": "Robinson",
    "lat": 14.8825,
    "lng": 103.4905,
    "latitude": 14.8825,
    "longitude": 103.4905,
    "province": "สุรินทร์",
    "isGiantActive": true,
    "is_giant_active": true,
    "icon": "🏬",
    "source": "seed-thailand-master"
  },
  "robinsonTrang": {
    "floors": [
      "G",
      "1F",
      "2F"
    ],
    "type": "mall",
    "id": "robinsonTrang",
    "name": "Robinson Trang",
    "shortName": "Robinson",
    "lat": 7.5565,
    "lng": 99.6115,
    "latitude": 7.5565,
    "longitude": 99.6115,
    "province": "ตรัง",
    "isGiantActive": true,
    "is_giant_active": true,
    "icon": "🏬",
    "source": "seed-thailand-master"
  },
  "royalGarden": {
    "floors": [
      "G",
      "1F",
      "2F",
      "3F"
    ],
    "type": "mall",
    "id": "royalGarden",
    "name": "Royal Garden Plaza",
    "shortName": "Royal Garden",
    "lat": 12.9305,
    "lng": 100.8745,
    "latitude": 12.9305,
    "longitude": 100.8745,
    "province": "ชลบุรี",
    "isGiantActive": true,
    "is_giant_active": true,
    "icon": "👑",
    "source": "seed-thailand-master"
  },
  "seaconSquare": {
    "floors": [
      "G",
      "1F",
      "2F",
      "3F",
      "4F"
    ],
    "type": "mall",
    "id": "seaconSquare",
    "name": "Seacon Square",
    "shortName": "Seacon",
    "lat": 13.7265,
    "lng": 100.6548,
    "latitude": 13.7265,
    "longitude": 100.6548,
    "province": "กรุงเทพฯ",
    "isGiantActive": true,
    "is_giant_active": true,
    "icon": "🌊",
    "source": "seed-thailand-master"
  },
  "siamCenter": {
    "floors": [
      "G",
      "1F",
      "2F",
      "3F",
      "4F"
    ],
    "type": "mall",
    "id": "siamCenter",
    "name": "Siam Center",
    "shortName": "Siam Center",
    "lat": 13.7458,
    "lng": 100.5322,
    "latitude": 13.7458,
    "longitude": 100.5322,
    "province": "กรุงเทพฯ",
    "isGiantActive": true,
    "is_giant_active": true,
    "icon": "🎨",
    "source": "seed-thailand-master"
  },
  "siamDiscovery": {
    "floors": [
      "G",
      "1F",
      "2F",
      "3F",
      "4F"
    ],
    "type": "mall",
    "id": "siamDiscovery",
    "name": "Siam Discovery",
    "shortName": "Discovery",
    "lat": 13.7465,
    "lng": 100.5305,
    "latitude": 13.7465,
    "longitude": 100.5305,
    "province": "กรุงเทพฯ",
    "isGiantActive": true,
    "is_giant_active": true,
    "icon": "🔬",
    "source": "seed-thailand-master"
  },
  "siamParagon": {
    "floors": [
      "B1",
      "G",
      "1F",
      "2F",
      "3F",
      "4F",
      "5F"
    ],
    "type": "luxury_mall",
    "id": "siamParagon",
    "name": "Siam Paragon",
    "shortName": "Paragon",
    "lat": 13.7462,
    "lng": 100.5348,
    "latitude": 13.7462,
    "longitude": 100.5348,
    "province": "กรุงเทพฯ",
    "isGiantActive": true,
    "is_giant_active": true,
    "icon": "💎",
    "source": "seed-thailand-master"
  },
  "suneeGrand": {
    "floors": [
      "G",
      "1F",
      "2F"
    ],
    "type": "mall",
    "id": "suneeGrand",
    "name": "Sunee Grand",
    "shortName": "Sunee Grand",
    "lat": 15.2315,
    "lng": 104.8505,
    "latitude": 15.2315,
    "longitude": 104.8505,
    "province": "อุบลราชธานี",
    "isGiantActive": true,
    "is_giant_active": true,
    "icon": "☀️",
    "source": "seed-thailand-master"
  },
  "terminal21Asok": {
    "floors": [
      "B1",
      "G",
      "M",
      "1F",
      "2F",
      "3F",
      "4F",
      "5F",
      "6F"
    ],
    "type": "mall",
    "id": "terminal21Asok",
    "name": "Terminal 21 Asok",
    "shortName": "T21 Asok",
    "lat": 13.7377,
    "lng": 100.5603,
    "latitude": 13.7377,
    "longitude": 100.5603,
    "province": "กรุงเทพฯ",
    "isGiantActive": true,
    "is_giant_active": true,
    "icon": "✈️",
    "source": "seed-thailand-master"
  },
  "terminal21Pattaya": {
    "floors": [
      "G",
      "1F",
      "2F",
      "3F",
      "4F",
      "5F"
    ],
    "type": "mall",
    "id": "terminal21Pattaya",
    "name": "Terminal 21 Pattaya",
    "shortName": "T21 Pattaya",
    "lat": 12.9347,
    "lng": 100.8832,
    "latitude": 12.9347,
    "longitude": 100.8832,
    "province": "ชลบุรี",
    "isGiantActive": true,
    "is_giant_active": true,
    "icon": "✈️",
    "source": "seed-thailand-master"
  },
  "terminalKorat": {
    "floors": [
      "G",
      "1F",
      "2F",
      "3F",
      "4F"
    ],
    "type": "mall",
    "id": "terminalKorat",
    "name": "Terminal 21 Korat",
    "shortName": "T21 Korat",
    "lat": 14.9785,
    "lng": 102.0975,
    "latitude": 14.9785,
    "longitude": 102.0975,
    "province": "นครราชสีมา",
    "isGiantActive": true,
    "is_giant_active": true,
    "icon": "✈️",
    "source": "seed-thailand-master"
  },
  "tescoAmnat": {
    "floors": [
      "G",
      "1F"
    ],
    "type": "hypermarket",
    "id": "tescoAmnat",
    "name": "Tesco Lotus Amnat Charoen",
    "shortName": "Tesco",
    "lat": 15.8625,
    "lng": 104.6285,
    "latitude": 15.8625,
    "longitude": 104.6285,
    "province": "อำนาจเจริญ",
    "isGiantActive": true,
    "is_giant_active": true,
    "icon": "🛒",
    "source": "seed-thailand-master"
  },
  "theMallBangkapi": {
    "floors": [
      "G",
      "1F",
      "2F",
      "3F",
      "4F"
    ],
    "type": "mall",
    "id": "theMallBangkapi",
    "name": "The Mall Bangkapi",
    "shortName": "The Mall",
    "lat": 13.7648,
    "lng": 100.6425,
    "latitude": 13.7648,
    "longitude": 100.6425,
    "province": "กรุงเทพฯ",
    "isGiantActive": true,
    "is_giant_active": true,
    "icon": "🏬",
    "source": "seed-thailand-master"
  },
  "theMallKorat": {
    "floors": [
      "G",
      "1F",
      "2F",
      "3F"
    ],
    "type": "mall",
    "id": "theMallKorat",
    "name": "The Mall Korat",
    "shortName": "The Mall",
    "lat": 14.9695,
    "lng": 102.0945,
    "latitude": 14.9695,
    "longitude": 102.0945,
    "province": "นครราชสีมา",
    "isGiantActive": true,
    "is_giant_active": true,
    "icon": "🏬",
    "source": "seed-thailand-master"
  },
  "thinkPark": {
    "id": "thinkPark",
    "name": "Think Park",
    "shortName": "Think Park",
    "lat": 18.8012,
    "lng": 98.9678,
    "province": "เชียงใหม่",
    "zone": "นิมมาน",
    "floors": [
      "G",
      "1F"
    ],
    "floorNames": {
      "G": "Cafes & Night Market",
      "1F": "Wine Bar & Massage"
    },
    "floorPlanUrls": {
      "G": "/data/floorplans/thinkpark-g.png",
      "1F": "/data/floorplans/thinkpark-1f.png"
    },
    "floorShops": {
      "G": [
        "Tom N Tom Cafe",
        "Dom Cafe",
        "PLAYWORKS Souvenirs",
        "Handmade Goods Market",
        "Night Market Area"
      ],
      "1F": [
        "Cafe Vino Wine Bar",
        "Massage Parlor",
        "RHYTHM & BREW Cafe Bar",
        "Camellia Music Bar"
      ]
    },
    "poiLegendMeta": {
      "entrance": {
        "label": "ทางเข้า",
        "color": "#22C55E",
        "icon": "🚪",
        "group": "Access",
        "order": 1,
        "sort": 10
      },
      "stairs": {
        "label": "บันได",
        "color": "#D97706",
        "icon": "🪜",
        "group": "Access",
        "order": 1,
        "sort": 20
      },
      "toilet": {
        "label": "ห้องน้ำ",
        "color": "#0EA5E9",
        "icon": "🚻",
        "group": "Facilities",
        "order": 2,
        "sort": 10
      },
      "info": {
        "label": "ประชาสัมพันธ์",
        "color": "#38BDF8",
        "icon": "ℹ️",
        "group": "Services",
        "order": 3,
        "sort": 10
      },
      "food": {
        "label": "อาหาร",
        "color": "#EF4444",
        "icon": "🍽️",
        "group": "Food",
        "order": 4,
        "sort": 10
      },
      "cafe": {
        "label": "คาเฟ่",
        "color": "#92400E",
        "icon": "☕",
        "group": "Food",
        "order": 4,
        "sort": 20
      },
      "shop": {
        "label": "ร้านค้า",
        "color": "#8B5CF6",
        "icon": "🛍️",
        "group": "Shopping",
        "order": 5,
        "sort": 10
      },
      "fashion": {
        "label": "แฟชั่น",
        "color": "#E11D48",
        "icon": "👗",
        "group": "Shopping",
        "order": 5,
        "sort": 20
      },
      "entertainment": {
        "label": "เอนเตอร์เทน",
        "color": "#F472B6",
        "icon": "🎵",
        "group": "Entertainment",
        "order": 6,
        "sort": 10
      },
      "parking": {
        "label": "ที่จอดรถ",
        "color": "#64748B",
        "icon": "🅿️",
        "group": "Parking",
        "order": 7,
        "sort": 10
      }
    },
    "indoorNavByFloor": {
      "G": [
        {
          "id": "thinkpark-g-entrance",
          "type": "entrance",
          "label": "Main Entrance (Huay Kaew Rd)",
          "lat": 18.8038,
          "lng": 98.9695,
          "zoneNo": "1"
        },
        {
          "id": "thinkpark-g-tom-ntom",
          "type": "cafe",
          "label": "Tom N Tom Cafe",
          "lat": 18.8032,
          "lng": 98.966,
          "zoneNo": "2"
        },
        {
          "id": "thinkpark-g-dom-cafe",
          "type": "cafe",
          "label": "Dom Cafe",
          "lat": 18.8012,
          "lng": 98.9678,
          "zoneNo": "3"
        },
        {
          "id": "thinkpark-g-playworks",
          "type": "shop",
          "label": "PLAYWORKS Souvenirs",
          "lat": 18.8012,
          "lng": 98.9708,
          "zoneNo": "4"
        },
        {
          "id": "thinkpark-g-handmade",
          "type": "shop",
          "label": "Handmade Goods Market",
          "lat": 18.8012,
          "lng": 98.9648,
          "zoneNo": "5"
        },
        {
          "id": "thinkpark-g-clothing",
          "type": "fashion",
          "label": "Clothing Stalls",
          "lat": 18.7998,
          "lng": 98.969,
          "zoneNo": "6"
        },
        {
          "id": "thinkpark-g-nightmarket",
          "type": "food",
          "label": "Night Market Area",
          "lat": 18.7985,
          "lng": 98.9678,
          "zoneNo": "7"
        }
      ],
      "1F": [
        {
          "id": "thinkpark-1f-stairs-west",
          "type": "stairs",
          "label": "Stairs Down (West)",
          "lat": 18.8018,
          "lng": 98.965,
          "zoneNo": "1"
        },
        {
          "id": "thinkpark-1f-stairs-east",
          "type": "stairs",
          "label": "Stairs Down (East)",
          "lat": 18.8018,
          "lng": 98.9708,
          "zoneNo": "2"
        },
        {
          "id": "thinkpark-1f-cafe-vino",
          "type": "food",
          "label": "Cafe Vino Wine Bar",
          "lat": 18.8025,
          "lng": 98.9665,
          "zoneNo": "3"
        },
        {
          "id": "thinkpark-1f-rhythm",
          "type": "entertainment",
          "label": "RHYTHM & BREW Cafe Bar",
          "lat": 18.8025,
          "lng": 98.9695,
          "zoneNo": "4"
        },
        {
          "id": "thinkpark-1f-camellia",
          "type": "entertainment",
          "label": "Camellia Music Bar",
          "lat": 18.8008,
          "lng": 98.9705,
          "zoneNo": "5"
        },
        {
          "id": "thinkpark-1f-massage",
          "type": "info",
          "label": "Massage Parlor",
          "lat": 18.8005,
          "lng": 98.966,
          "zoneNo": "6"
        }
      ]
    },
    "openTime": "10:00",
    "closeTime": "22:00",
    "latitude": 18.8012,
    "longitude": 98.9678,
    "source": "curated"
  },
  "udTown": {
    "floors": [
      "G",
      "1F",
      "2F"
    ],
    "type": "mall",
    "id": "udTown",
    "name": "UD Town",
    "shortName": "UD Town",
    "lat": 17.4125,
    "lng": 102.7915,
    "latitude": 17.4125,
    "longitude": 102.7915,
    "province": "อุดรธานี",
    "isGiantActive": true,
    "is_giant_active": true,
    "icon": "🏘️",
    "source": "seed-thailand-master"
  },
  "vanaKrabi": {
    "floors": [
      "G",
      "1F"
    ],
    "type": "mall",
    "id": "vanaKrabi",
    "name": "Vana Nava Krabi",
    "shortName": "Vana Nava",
    "lat": 8.0855,
    "lng": 98.9065,
    "latitude": 8.0855,
    "longitude": 98.9065,
    "province": "กระบี่",
    "isGiantActive": true,
    "is_giant_active": true,
    "icon": "🌴",
    "source": "seed-thailand-master"
  },
  "vSquareNS": {
    "floors": [
      "G",
      "1F",
      "2F"
    ],
    "type": "mall",
    "id": "vSquareNS",
    "name": "V Square Nakhon Sawan",
    "shortName": "V Square",
    "lat": 15.7047,
    "lng": 100.1367,
    "latitude": 15.7047,
    "longitude": 100.1367,
    "province": "นครสวรรค์",
    "isGiantActive": true,
    "is_giant_active": true,
    "icon": "🏢",
    "source": "seed-thailand-master"
  },
  "zpellRangsit": {
    "floors": [
      "G",
      "1F",
      "2F"
    ],
    "type": "mall",
    "id": "zpellRangsit",
    "name": "Zpell@Future Park",
    "shortName": "Zpell",
    "lat": 13.9872,
    "lng": 100.6175,
    "latitude": 13.9872,
    "longitude": 100.6175,
    "province": "ปทุมธานี",
    "isGiantActive": true,
    "is_giant_active": true,
    "icon": "⚡",
    "source": "seed-thailand-master"
  }
}
